[
 {
   "id": 307979,
   "ident": "ABE",
   "name": "RAF Calveley",
   "latitude_deg": 53.113333,
   "longitude_deg": -2.603889,
   "iso_country": "GB"
 },
 {
   "id": 302247,
   "ident": "ABL",
   "name": "RNAS/RAF Calshot",
   "latitude_deg": 50.81991315,
   "longitude_deg": -1.306772232,
   "iso_country": "GB"
 },
 {
   "id": 318235,
   "ident": "AD-0001",
   "name": "Terra Guindaldes Heliport",
   "latitude_deg": 42.546257,
   "longitude_deg": 1.51916,
   "iso_country": "AD"
 },
 {
   "id": 338490,
   "ident": "AD-0002",
   "name": "Arinsal (Coll de la Botella) Heliport",
   "latitude_deg": 42.544983,
   "longitude_deg": 1.452258,
   "iso_country": "AD"
 },
 {
   "id": 41841,
   "ident": "AD-ALV",
   "name": "Andorra la Vella (Our Lady of Meritxell Hospital) Heliport",
   "latitude_deg": 42.511228,
   "longitude_deg": 1.533651,
   "iso_country": "AD"
 },
 {
   "id": 300604,
   "ident": "ADJ",
   "name": "RAF Castletown",
   "latitude_deg": 58.58471989,
   "longitude_deg": -3.348169327,
   "iso_country": "GB"
 },
 {
   "id": 300646,
   "ident": "AEI",
   "name": "Algeciras Heliport",
   "latitude_deg": 36.12882,
   "longitude_deg": -5.441079,
   "iso_country": "ES"
 },
 {
   "id": 35356,
   "ident": "AL-0001",
   "name": "Lapraka Heliport",
   "latitude_deg": 41.330782,
   "longitude_deg": 19.795152,
   "iso_country": "AL"
 },
 {
   "id": 325353,
   "ident": "AL-0002",
   "name": "Lower Koretica Airport",
   "latitude_deg": 42.605192,
   "longitude_deg": 20.909699,
   "iso_country": "XK"
 },
 {
   "id": 325354,
   "ident": "AL-0003",
   "name": "Mifoit Airport",
   "latitude_deg": 40.601737,
   "longitude_deg": 19.432712,
   "iso_country": "AL"
 },
 {
   "id": 340588,
   "ident": "AL-0004",
   "name": "Mother Teresa Hospital Heliport",
   "latitude_deg": 41.339303,
   "longitude_deg": 19.830489,
   "iso_country": "AL"
 },
 {
   "id": 340589,
   "ident": "AL-0005",
   "name": "University Trauma Hospital Heliport",
   "latitude_deg": 41.342857,
   "longitude_deg": 19.793764,
   "iso_country": "AL"
 },
 {
   "id": 349286,
   "ident": "AL-0006",
   "name": "Pogradec Heliport",
   "latitude_deg": 40.90539,
   "longitude_deg": 20.65453,
   "iso_country": "AL"
 },
 {
   "id": 349287,
   "ident": "AL-0007",
   "name": "Viva Air Heliport",
   "latitude_deg": 41.23048,
   "longitude_deg": 19.80107,
   "iso_country": "AL"
 },
 {
   "id": 349288,
   "ident": "AL-0008",
   "name": "Farkë Helicopter Base",
   "latitude_deg": 41.31554,
   "longitude_deg": 19.88554,
   "iso_country": "AL"
 },
 {
   "id": 349289,
   "ident": "AL-0009",
   "name": "Puka Heliport",
   "latitude_deg": 42.0417,
   "longitude_deg": 19.86158,
   "iso_country": "AL"
 },
 {
   "id": 5,
   "ident": "AL-LA10",
   "name": "Gjirokastër Airfield",
   "latitude_deg": 40.085383,
   "longitude_deg": 20.15389,
   "iso_country": "AL"
 },
 {
   "id": 43818,
   "ident": "AT-0001",
   "name": "Pöchlarn-Wörth Heliport",
   "latitude_deg": 48.214737,
   "longitude_deg": 15.255424,
   "iso_country": "AT"
 },
 {
   "id": 46529,
   "ident": "AT-0002",
   "name": "Scalaria Airchallenge Water Landing Area",
   "latitude_deg": 47.73470543,
   "longitude_deg": 13.4438324,
   "iso_country": "AT"
 },
 {
   "id": 312150,
   "ident": "AT-0003",
   "name": "Bad Tatzmannsdorf PVA Hospital Helipad",
   "latitude_deg": 47.33072,
   "longitude_deg": 16.22207,
   "iso_country": "AT"
 },
 {
   "id": 312153,
   "ident": "AT-0004",
   "name": "Güssing Hospital Helipad",
   "latitude_deg": 47.04977,
   "longitude_deg": 16.3217,
   "iso_country": "AT"
 },
 {
   "id": 320904,
   "ident": "AT-0005",
   "name": "Retzer Land Heliport",
   "latitude_deg": 48.7545,
   "longitude_deg": 15.9622,
   "iso_country": "AT"
 },
 {
   "id": 329106,
   "ident": "AT-0006",
   "name": "Christophorus 8 Heliport",
   "latitude_deg": 47.2089892,
   "longitude_deg": 9.6598223,
   "iso_country": "AT"
 },
 {
   "id": 329108,
   "ident": "AT-0007",
   "name": "Christophorus 15 Heliport",
   "latitude_deg": 47.9692672,
   "longitude_deg": 14.9396096,
   "iso_country": "AT"
 },
 {
   "id": 329312,
   "ident": "AT-0008",
   "name": "Gmünd Heliport",
   "latitude_deg": 48.78522,
   "longitude_deg": 14.974763,
   "iso_country": "AT"
 },
 {
   "id": 334039,
   "ident": "AT-0009",
   "name": "Ameis Airstrip",
   "latitude_deg": 48.657837,
   "longitude_deg": 16.540234,
   "iso_country": "AT"
 },
 {
   "id": 349033,
   "ident": "AT-0010",
   "name": "Radochen Airstrip",
   "latitude_deg": 46.76296,
   "longitude_deg": 15.90426,
   "iso_country": "AT"
 },
 {
   "id": 43884,
   "ident": "BA-0001",
   "name": "Sport airfield Ciljuge",
   "latitude_deg": 44.43815231,
   "longitude_deg": 18.68561363,
   "iso_country": "BA"
 },
 {
   "id": 317425,
   "ident": "BA-0002",
   "name": "Sportski Aerodrom Zalužani",
   "latitude_deg": 44.8482,
   "longitude_deg": 17.222826,
   "iso_country": "BA"
 },
 {
   "id": 321737,
   "ident": "BA-0003",
   "name": "Brod Airstrip",
   "latitude_deg": 44.846235,
   "longitude_deg": 18.761888,
   "iso_country": "BA"
 },
 {
   "id": 335270,
   "ident": "BA-0004",
   "name": "Trebinje (Zupci) Aerodrome",
   "latitude_deg": 42.62613,
   "longitude_deg": 18.41181,
   "iso_country": "BA"
 },
 {
   "id": 345690,
   "ident": "BA-0005",
   "name": "Rajlovac Helicopter Base",
   "latitude_deg": 43.86972,
   "longitude_deg": 18.30428,
   "iso_country": "BA"
 },
 {
   "id": 345866,
   "ident": "BA-0006",
   "name": "Kreševo Airstrip",
   "latitude_deg": 43.885661,
   "longitude_deg": 18.068562,
   "iso_country": "BA"
 },
 {
   "id": 346794,
   "ident": "BA-0007",
   "name": "Aerodrom Gorice",
   "latitude_deg": 44.91275,
   "longitude_deg": 18.73672,
   "iso_country": "BA"
 },
 {
   "id": 43750,
   "ident": "BE-0001",
   "name": "Froidchapelle Glider Field",
   "latitude_deg": 50.176388,
   "longitude_deg": 4.352222,
   "iso_country": "BE"
 },
 {
   "id": 43753,
   "ident": "BE-0002",
   "name": "Chimay-Virelles Ulmodrome",
   "latitude_deg": 50.11777878,
   "longitude_deg": 4.330555916,
   "iso_country": "BE"
 },
 {
   "id": 43762,
   "ident": "BE-0003",
   "name": "Sovet Airfield",
   "latitude_deg": 50.286667,
   "longitude_deg": 5.040278,
   "iso_country": "BE"
 },
 {
   "id": 301715,
   "ident": "BE-0004",
   "name": "Zomergem Heliport",
   "latitude_deg": 51.131389,
   "longitude_deg": 3.522222,
   "iso_country": "BE"
 },
 {
   "id": 306974,
   "ident": "BE-0005",
   "name": "RAF Castle Camps",
   "latitude_deg": 52.051389,
   "longitude_deg": 0.378611,
   "iso_country": "GB"
 },
 {
   "id": 336984,
   "ident": "BE-0006",
   "name": "Aalst Heliport",
   "latitude_deg": 50.931346,
   "longitude_deg": 4.087214,
   "iso_country": "BE"
 },
 {
   "id": 312154,
   "ident": "BE-0007",
   "name": "Imelda Hospital Helipad",
   "latitude_deg": 51.01767,
   "longitude_deg": 4.55819,
   "iso_country": "BE"
 },
 {
   "id": 323796,
   "ident": "BE-0008",
   "name": "Brecht/Vochten Heliport",
   "latitude_deg": 51.332,
   "longitude_deg": 4.62466,
   "iso_country": "BE"
 },
 {
   "id": 323798,
   "ident": "BE-0009",
   "name": "Jan Palfijn Hospital Heliport",
   "latitude_deg": 51.04837,
   "longitude_deg": 3.700179,
   "iso_country": "BE"
 },
 {
   "id": 323969,
   "ident": "BE-0010",
   "name": "Lint Heliport",
   "latitude_deg": 51.136214,
   "longitude_deg": 4.47898,
   "iso_country": "BE"
 },
 {
   "id": 323973,
   "ident": "BE-0011",
   "name": "Neerpelt/Tilburgs Heliport",
   "latitude_deg": 51.240015,
   "longitude_deg": 5.417956,
   "iso_country": "BE"
 },
 {
   "id": 324445,
   "ident": "BE-0012",
   "name": "Céroux-Mousty Balloon Field",
   "latitude_deg": 50.660241,
   "longitude_deg": 4.513276,
   "iso_country": "BE"
 },
 {
   "id": 337582,
   "ident": "BE-0013",
   "name": "Halen Heliport",
   "latitude_deg": 50.930833,
   "longitude_deg": 5.081389,
   "iso_country": "BE"
 },
 {
   "id": 337610,
   "ident": "BE-0014",
   "name": "Ichtegem Heliport",
   "latitude_deg": 51.061944,
   "longitude_deg": 3.030556,
   "iso_country": "BE"
 },
 {
   "id": 337615,
   "ident": "BE-0015",
   "name": "Lochristi Heliport",
   "latitude_deg": 51.084131,
   "longitude_deg": 3.838701,
   "iso_country": "BE"
 },
 {
   "id": 337616,
   "ident": "BE-0016",
   "name": "Lochristi Heliport",
   "latitude_deg": 51.084131,
   "longitude_deg": 3.838701,
   "iso_country": "BE"
 },
 {
   "id": 342113,
   "ident": "BE-0017",
   "name": "Montegnee / CHC Heliport",
   "latitude_deg": 50.640702,
   "longitude_deg": 5.533148,
   "iso_country": "BE"
 },
 {
   "id": 342121,
   "ident": "BE-0018",
   "name": "Oostdijckbank Radar Post Helipad",
   "latitude_deg": 51.274444,
   "longitude_deg": 2.4475,
   "iso_country": "BE"
 },
 {
   "id": 43886,
   "ident": "BG-0001",
   "name": "Livada Airport",
   "latitude_deg": 42.456284,
   "longitude_deg": 27.197334,
   "iso_country": "BG"
 },
 {
   "id": 43888,
   "ident": "BG-0002",
   "name": "Troyanovo Airport",
   "latitude_deg": 42.56879,
   "longitude_deg": 27.148243,
   "iso_country": "BG"
 },
 {
   "id": 43889,
   "ident": "BG-0003",
   "name": "Trustikovo Airstrip",
   "latitude_deg": 42.414635,
   "longitude_deg": 27.294455,
   "iso_country": "BG"
 },
 {
   "id": 43890,
   "ident": "BG-0004",
   "name": "Zagortsi Airfield",
   "latitude_deg": 42.403419,
   "longitude_deg": 27.070246,
   "iso_country": "BG"
 },
 {
   "id": 43893,
   "ident": "BG-0005",
   "name": "Svishtov Airfield",
   "latitude_deg": 43.618179,
   "longitude_deg": 25.283663,
   "iso_country": "BG"
 },
 {
   "id": 43894,
   "ident": "BG-0006",
   "name": "Vardim Airfield",
   "latitude_deg": 43.617466,
   "longitude_deg": 25.523912,
   "iso_country": "BG"
 },
 {
   "id": 43895,
   "ident": "BG-0007",
   "name": "Glozhene Airfield",
   "latitude_deg": 43.679222,
   "longitude_deg": 23.796246,
   "iso_country": "BG"
 },
 {
   "id": 43896,
   "ident": "BG-0008",
   "name": "Kozloduy Airfield",
   "latitude_deg": 43.763134,
   "longitude_deg": 23.722031,
   "iso_country": "BG"
 },
 {
   "id": 43897,
   "ident": "BG-0009",
   "name": "Selanovtsi Airfield",
   "latitude_deg": 43.655277,
   "longitude_deg": 24.010071,
   "iso_country": "BG"
 },
 {
   "id": 43901,
   "ident": "BG-0010",
   "name": "Krushovene Airfield",
   "latitude_deg": 43.623531,
   "longitude_deg": 24.378567,
   "iso_country": "BG"
 },
 {
   "id": 43902,
   "ident": "BG-0011",
   "name": "Milkovitsa Airfield",
   "latitude_deg": 43.634274,
   "longitude_deg": 24.757254,
   "iso_country": "BG"
 },
 {
   "id": 43904,
   "ident": "BG-0012",
   "name": "Voysil Airfield",
   "latitude_deg": 42.21756,
   "longitude_deg": 24.639126,
   "iso_country": "BG"
 },
 {
   "id": 43905,
   "ident": "BG-0013",
   "name": "Dve Mogili Airfield",
   "latitude_deg": 43.606655,
   "longitude_deg": 25.890982,
   "iso_country": "BG"
 },
 {
   "id": 43906,
   "ident": "BG-0014",
   "name": "Ryakhovo Airport",
   "latitude_deg": 43.982754,
   "longitude_deg": 26.242744,
   "iso_country": "BG"
 },
 {
   "id": 43907,
   "ident": "BG-0015",
   "name": "Trastenik Airfield",
   "latitude_deg": 43.665955,
   "longitude_deg": 25.866686,
   "iso_country": "BG"
 },
 {
   "id": 43913,
   "ident": "BG-0016",
   "name": "Raikova Mogila Airfield",
   "latitude_deg": 41.815411,
   "longitude_deg": 26.304062,
   "iso_country": "BG"
 },
 {
   "id": 43914,
   "ident": "BG-0017",
   "name": "Topolovgrad Airfield",
   "latitude_deg": 42.11302,
   "longitude_deg": 26.382551,
   "iso_country": "BG"
 },
 {
   "id": 43915,
   "ident": "BG-0018",
   "name": "Irechekovo Airfield",
   "latitude_deg": 42.470249,
   "longitude_deg": 26.733295,
   "iso_country": "BG"
 },
 {
   "id": 43916,
   "ident": "BG-0019",
   "name": "Voynika Airfield",
   "latitude_deg": 42.377701,
   "longitude_deg": 26.843519,
   "iso_country": "BG"
 },
 {
   "id": 43917,
   "ident": "BG-0020",
   "name": "Yambol Airfield",
   "latitude_deg": 42.507132,
   "longitude_deg": 26.490739,
   "iso_country": "BG"
 },
 {
   "id": 313407,
   "ident": "BG-0021",
   "name": "Gledka Airfield",
   "latitude_deg": 41.5999,
   "longitude_deg": 25.3857,
   "iso_country": "BG"
 },
 {
   "id": 315501,
   "ident": "BG-0022",
   "name": "Staro Jelezare",
   "latitude_deg": 42.447797,
   "longitude_deg": 24.663927,
   "iso_country": "BG"
 },
 {
   "id": 315509,
   "ident": "BG-0023",
   "name": "Ostrovo",
   "latitude_deg": 43.6938742,
   "longitude_deg": 26.5799644,
   "iso_country": "BG"
 },
 {
   "id": 315510,
   "ident": "BG-0024",
   "name": "Krivnya Agricultural Airfield",
   "latitude_deg": 43.66307,
   "longitude_deg": 26.422251,
   "iso_country": "BG"
 },
 {
   "id": 315604,
   "ident": "BG-0025",
   "name": "Belchinski Bani Airstrip",
   "latitude_deg": 42.37488,
   "longitude_deg": 23.39322,
   "iso_country": "BG"
 },
 {
   "id": 315677,
   "ident": "BG-0026",
   "name": "Polikraishte",
   "latitude_deg": 43.199333,
   "longitude_deg": 25.640889,
   "iso_country": "BG"
 },
 {
   "id": 315917,
   "ident": "BG-0027",
   "name": "Gabrovo Airstrip",
   "latitude_deg": 42.9482,
   "longitude_deg": 25.35998,
   "iso_country": "BG"
 },
 {
   "id": 315928,
   "ident": "BG-0028",
   "name": "Blagoevo Airfield",
   "latitude_deg": 43.455488,
   "longitude_deg": 26.431655,
   "iso_country": "BG"
 },
 {
   "id": 316181,
   "ident": "BG-0029",
   "name": "Staro Selishte",
   "latitude_deg": 43.6502778,
   "longitude_deg": 26.7541667,
   "iso_country": "BG"
 },
 {
   "id": 316246,
   "ident": "BG-0030",
   "name": "Bozhurishte",
   "latitude_deg": 42.7533821,
   "longitude_deg": 23.2028015,
   "iso_country": "BG"
 },
 {
   "id": 316281,
   "ident": "BG-0031",
   "name": "Draganovtsi Airfield",
   "latitude_deg": 42.943042,
   "longitude_deg": 25.169528,
   "iso_country": "BG"
 },
 {
   "id": 316288,
   "ident": "BG-0032",
   "name": "Breznik",
   "latitude_deg": 42.6933052,
   "longitude_deg": 22.8965594,
   "iso_country": "BG"
 },
 {
   "id": 316339,
   "ident": "BG-0033",
   "name": "Slivnitsa",
   "latitude_deg": 42.8441447,
   "longitude_deg": 23.0144436,
   "iso_country": "BG"
 },
 {
   "id": 318180,
   "ident": "BG-0034",
   "name": "Brogovo Airstrip",
   "latitude_deg": 44.132,
   "longitude_deg": 22.659357,
   "iso_country": "BG"
 },
 {
   "id": 318181,
   "ident": "BG-0035",
   "name": "Kapitanovtsi Airstrip",
   "latitude_deg": 44.055815,
   "longitude_deg": 22.878457,
   "iso_country": "BG"
 },
 {
   "id": 320248,
   "ident": "BG-0036",
   "name": "Veren Airfield",
   "latitude_deg": 42.3326251,
   "longitude_deg": 25.1695166,
   "iso_country": "BG"
 },
 {
   "id": 320637,
   "ident": "BG-0037",
   "name": "Orliak Airfield",
   "latitude_deg": 43.6344188,
   "longitude_deg": 27.3963294,
   "iso_country": "BG"
 },
 {
   "id": 320719,
   "ident": "BG-0038",
   "name": "Suvorovo Airstrip",
   "latitude_deg": 43.3587179,
   "longitude_deg": 27.5827284,
   "iso_country": "BG"
 },
 {
   "id": 320720,
   "ident": "BG-0039",
   "name": "Branichevo Airstrip",
   "latitude_deg": 43.6657816,
   "longitude_deg": 27.1007895,
   "iso_country": "BG"
 },
 {
   "id": 320908,
   "ident": "BG-0040",
   "name": "Belozem Airport",
   "latitude_deg": 42.21673,
   "longitude_deg": 25.066588,
   "iso_country": "BG"
 },
 {
   "id": 320996,
   "ident": "BG-0041",
   "name": "Selskostopansko Airstrip",
   "latitude_deg": 42.544095,
   "longitude_deg": 26.673452,
   "iso_country": "BG"
 },
 {
   "id": 321060,
   "ident": "BG-0042",
   "name": "Selskostopansko Airstrip",
   "latitude_deg": 43.236482,
   "longitude_deg": 27.045656,
   "iso_country": "BG"
 },
 {
   "id": 321097,
   "ident": "BG-0043",
   "name": "Nikola Kozlevo Airstrip",
   "latitude_deg": 43.5533648,
   "longitude_deg": 27.2228242,
   "iso_country": "BG"
 },
 {
   "id": 321107,
   "ident": "BG-0044",
   "name": "Yunatsite Airstrip",
   "latitude_deg": 42.232673,
   "longitude_deg": 24.245056,
   "iso_country": "BG"
 },
 {
   "id": 323617,
   "ident": "BG-0045",
   "name": "Mogilishte Airstrip",
   "latitude_deg": 43.49156,
   "longitude_deg": 28.351996,
   "iso_country": "BG"
 },
 {
   "id": 323737,
   "ident": "BG-0046",
   "name": "Dzhulyunitsa Airstrip",
   "latitude_deg": 43.5852521,
   "longitude_deg": 25.6144416,
   "iso_country": "BG"
 },
 {
   "id": 323828,
   "ident": "BG-0047",
   "name": "Rakovski Airstrip",
   "latitude_deg": 42.293513,
   "longitude_deg": 24.947311,
   "iso_country": "BG"
 },
 {
   "id": 323875,
   "ident": "BG-0048",
   "name": "Pishtigovo Airstrip",
   "latitude_deg": 42.2307252,
   "longitude_deg": 24.4383034,
   "iso_country": "BG"
 },
 {
   "id": 323908,
   "ident": "BG-0049",
   "name": "SSA Kalipetrovo",
   "latitude_deg": 44.0580505,
   "longitude_deg": 27.2564944,
   "iso_country": "BG"
 },
 {
   "id": 323910,
   "ident": "BG-0050",
   "name": "Koynare Airstrip",
   "latitude_deg": 43.3710549,
   "longitude_deg": 24.1304424,
   "iso_country": "BG"
 },
 {
   "id": 323951,
   "ident": "BG-0051",
   "name": "Ovchepoltsi Airstrip",
   "latitude_deg": 42.3227836,
   "longitude_deg": 24.4194897,
   "iso_country": "BG"
 },
 {
   "id": 324004,
   "ident": "BG-0052",
   "name": "Pirin Airfield",
   "latitude_deg": 41.564478,
   "longitude_deg": 23.766999,
   "iso_country": "BG"
 },
 {
   "id": 324048,
   "ident": "BG-0053",
   "name": "Staroseltsi",
   "latitude_deg": 43.531511,
   "longitude_deg": 24.2967868,
   "iso_country": "BG"
 },
 {
   "id": 324356,
   "ident": "BG-0054",
   "name": "Saedinenie Airstrip",
   "latitude_deg": 42.296957,
   "longitude_deg": 24.555684,
   "iso_country": "BG"
 },
 {
   "id": 324584,
   "ident": "BG-0055",
   "name": "Shumen Airfield",
   "latitude_deg": 43.287027,
   "longitude_deg": 26.942278,
   "iso_country": "BG"
 },
 {
   "id": 325007,
   "ident": "BG-0056",
   "name": "Karamanite Airstrip",
   "latitude_deg": 43.4945283,
   "longitude_deg": 27.4480307,
   "iso_country": "BG"
 },
 {
   "id": 325008,
   "ident": "BG-0057",
   "name": "Lozen Airstrip",
   "latitude_deg": 43.3017942,
   "longitude_deg": 25.8624229,
   "iso_country": "BG"
 },
 {
   "id": 325118,
   "ident": "BG-0058",
   "name": "Dragoman Airstrip",
   "latitude_deg": 42.9335588,
   "longitude_deg": 22.978856,
   "iso_country": "BG"
 },
 {
   "id": 326621,
   "ident": "BG-0059",
   "name": "Slavovitsa Airstrip",
   "latitude_deg": 43.58114,
   "longitude_deg": 24.447395,
   "iso_country": "BG"
 },
 {
   "id": 326891,
   "ident": "BG-0060",
   "name": "Panicharevo Airstrip",
   "latitude_deg": 42.2765321,
   "longitude_deg": 22.990845,
   "iso_country": "BG"
 },
 {
   "id": 328102,
   "ident": "BG-0061",
   "name": "Doyrentsi",
   "latitude_deg": 43.250388,
   "longitude_deg": 24.838526,
   "iso_country": "BG"
 },
 {
   "id": 328224,
   "ident": "BG-0062",
   "name": "Knezha Airstrip",
   "latitude_deg": 43.5460038,
   "longitude_deg": 24.0946856,
   "iso_country": "BG"
 },
 {
   "id": 328225,
   "ident": "BG-0063",
   "name": "Brenitsa Airstrip",
   "latitude_deg": 43.4415329,
   "longitude_deg": 24.1403714,
   "iso_country": "BG"
 },
 {
   "id": 328466,
   "ident": "BG-0064",
   "name": "Gradishte Airstrip",
   "latitude_deg": 43.3339849,
   "longitude_deg": 26.8542546,
   "iso_country": "BG"
 },
 {
   "id": 328915,
   "ident": "BG-0065",
   "name": "Borovan Airstrip",
   "latitude_deg": 43.426891,
   "longitude_deg": 23.77037,
   "iso_country": "BG"
 },
 {
   "id": 329247,
   "ident": "BG-0066",
   "name": "Tervel Airstrip",
   "latitude_deg": 43.717853,
   "longitude_deg": 27.439528,
   "iso_country": "BG"
 },
 {
   "id": 330281,
   "ident": "BG-0067",
   "name": "Aytos Airstrip",
   "latitude_deg": 42.6774939,
   "longitude_deg": 27.2549498,
   "iso_country": "BG"
 },
 {
   "id": 330334,
   "ident": "BG-0068",
   "name": "Lozarevo Airstrip",
   "latitude_deg": 42.757368,
   "longitude_deg": 26.900321,
   "iso_country": "BG"
 },
 {
   "id": 330371,
   "ident": "BG-0069",
   "name": "Bedzhene Airstrip",
   "latitude_deg": 43.447649,
   "longitude_deg": 27.276678,
   "iso_country": "BG"
 },
 {
   "id": 330381,
   "ident": "BG-0070",
   "name": "Krivodol Airstrip",
   "latitude_deg": 43.37472,
   "longitude_deg": 23.51036,
   "iso_country": "BG"
 },
 {
   "id": 330382,
   "ident": "BG-0071",
   "name": "Medovnitsa Airstrip",
   "latitude_deg": 43.647875,
   "longitude_deg": 22.797256,
   "iso_country": "BG"
 },
 {
   "id": 331798,
   "ident": "BG-0072",
   "name": "Slatina Airstrip",
   "latitude_deg": 43.271956,
   "longitude_deg": 24.739418,
   "iso_country": "BG"
 },
 {
   "id": 331845,
   "ident": "BG-0073",
   "name": "Shtraklevo Airstrip",
   "latitude_deg": 43.727328,
   "longitude_deg": 26.050494,
   "iso_country": "BG"
 },
 {
   "id": 342213,
   "ident": "BG-0074",
   "name": "Tsar-Kaloyan Airfield",
   "latitude_deg": 43.6058,
   "longitude_deg": 26.287,
   "iso_country": "BG"
 },
 {
   "id": 342214,
   "ident": "BG-0075",
   "name": "Vetrino Airstrip",
   "latitude_deg": 43.31172,
   "longitude_deg": 27.41527,
   "iso_country": "BG"
 },
 {
   "id": 342215,
   "ident": "BG-0076",
   "name": "Ezerets Airstrip",
   "latitude_deg": 43.59181,
   "longitude_deg": 28.50535,
   "iso_country": "BG"
 },
 {
   "id": 345099,
   "ident": "BG-0077",
   "name": "Ruen Airstrip",
   "latitude_deg": 42.80135,
   "longitude_deg": 27.29442,
   "iso_country": "BG"
 },
 {
   "id": 345104,
   "ident": "BG-0078",
   "name": "Belozem Airstrip",
   "latitude_deg": 42.21439,
   "longitude_deg": 25.05879,
   "iso_country": "BG"
 },
 {
   "id": 346373,
   "ident": "BG-0079",
   "name": "Zabet Airstrip",
   "latitude_deg": 43.74425,
   "longitude_deg": 26.66147,
   "iso_country": "BG"
 },
 {
   "id": 347167,
   "ident": "BG-0080",
   "name": "Selskostopansko Airstrip",
   "latitude_deg": 43.40321,
   "longitude_deg": 25.8523,
   "iso_country": "BG"
 },
 {
   "id": 347419,
   "ident": "BG-0081",
   "name": "Kalugerene Airstrip",
   "latitude_deg": 43.90714,
   "longitude_deg": 26.86659,
   "iso_country": "BG"
 },
 {
   "id": 347697,
   "ident": "BG-0082",
   "name": "Zelenikovo Airstrip SSA",
   "latitude_deg": 42.39258,
   "longitude_deg": 25.07867,
   "iso_country": "BG"
 },
 {
   "id": 347698,
   "ident": "BG-0083",
   "name": "Moskovec Airstrip SSA",
   "latitude_deg": 42.65839,
   "longitude_deg": 24.68383,
   "iso_country": "BG"
 },
 {
   "id": 347932,
   "ident": "BG-0084",
   "name": "Nedelevo Airstrip",
   "latitude_deg": 42.33902,
   "longitude_deg": 24.60951,
   "iso_country": "BG"
 },
 {
   "id": 348160,
   "ident": "BG-0085",
   "name": "Kubrat Airstrip",
   "latitude_deg": 43.78688,
   "longitude_deg": 26.51561,
   "iso_country": "BG"
 },
 {
   "id": 348336,
   "ident": "BG-0086",
   "name": "Vabel Airstrip",
   "latitude_deg": 43.66382,
   "longitude_deg": 24.91322,
   "iso_country": "BG"
 },
 {
   "id": 31597,
   "ident": "BG-HKV",
   "name": "Malevo Airport",
   "latitude_deg": 41.87179947,
   "longitude_deg": 25.60479927,
   "iso_country": "BG"
 },
 {
   "id": 111,
   "ident": "BG-JAM",
   "name": "Bezmer Air Base",
   "latitude_deg": 42.45489883,
   "longitude_deg": 26.35219955,
   "iso_country": "BG"
 },
 {
   "id": 30709,
   "ident": "BIAE",
   "name": "Arngerðareyri Airport",
   "latitude_deg": 65.90470123,
   "longitude_deg": -22.36330032,
   "iso_country": "IS"
 },
 {
   "id": 30710,
   "ident": "BIAL",
   "name": "Álftaver Airport",
   "latitude_deg": 63.54000092,
   "longitude_deg": -18.44939995,
   "iso_country": "IS"
 },
 {
   "id": 117,
   "ident": "BIAR",
   "name": "Akureyri Airport",
   "latitude_deg": 65.66000366,
   "longitude_deg": -18.0727005,
   "iso_country": "IS"
 },
 {
   "id": 30712,
   "ident": "BIBA",
   "name": "Bakki Airport",
   "latitude_deg": 63.55609894,
   "longitude_deg": -20.13750076,
   "iso_country": "IS"
 },
 {
   "id": 118,
   "ident": "BIBD",
   "name": "Bildudalur Airport",
   "latitude_deg": 65.64129639,
   "longitude_deg": -23.5461998,
   "iso_country": "IS"
 },
 {
   "id": 30700,
   "ident": "BIBF",
   "name": "Borgarfjörður eystri Airport",
   "latitude_deg": 65.5164032,
   "longitude_deg": -13.80500031,
   "iso_country": "IS"
 },
 {
   "id": 30713,
   "ident": "BIBI",
   "name": "Baeir Airport",
   "latitude_deg": 66.097838,
   "longitude_deg": -22.569713,
   "iso_country": "IS"
 },
 {
   "id": 30759,
   "ident": "BIBK",
   "name": "Bakkafjörður Airport",
   "latitude_deg": 66.02189636,
   "longitude_deg": -14.82439995,
   "iso_country": "IS"
 },
 {
   "id": 30771,
   "ident": "BIBL",
   "name": "Hjaltabakki Airport",
   "latitude_deg": 65.64499664,
   "longitude_deg": -20.28750038,
   "iso_country": "IS"
 },
 {
   "id": 30789,
   "ident": "BIBR",
   "name": "Búðardalur Airport",
   "latitude_deg": 65.07530212,
   "longitude_deg": -21.8003006,
   "iso_country": "IS"
 },
 {
   "id": 30807,
   "ident": "BIBV",
   "name": "Breiðdalsvík Airport",
   "latitude_deg": 64.790037,
   "longitude_deg": -14.043927,
   "iso_country": "IS"
 },
 {
   "id": 30714,
   "ident": "BIDA",
   "name": "Dagverðará Airport",
   "latitude_deg": 64.74500275,
   "longitude_deg": -23.72719955,
   "iso_country": "IS"
 },
 {
   "id": 30922,
   "ident": "BIDV",
   "name": "Djúpivogur Airport",
   "latitude_deg": 64.642372,
   "longitude_deg": -14.277297,
   "iso_country": "IS"
 },
 {
   "id": 119,
   "ident": "BIEG",
   "name": "Egilsstaðir Airport",
   "latitude_deg": 65.28330231,
   "longitude_deg": -14.40139961,
   "iso_country": "IS"
 },
 {
   "id": 30715,
   "ident": "BIEH",
   "name": "Einholtsmelar Airport",
   "latitude_deg": 64.24533,
   "longitude_deg": -20.299587,
   "iso_country": "IS"
 },
 {
   "id": 31058,
   "ident": "BIFF",
   "name": "Fáskrúðsfjörður Airport",
   "latitude_deg": 64.931456,
   "longitude_deg": -14.047957,
   "iso_country": "IS"
 },
 {
   "id": 30716,
   "ident": "BIFL",
   "name": "Flúðir Airport",
   "latitude_deg": 64.14279938,
   "longitude_deg": -20.3260994,
   "iso_country": "IS"
 },
 {
   "id": 31041,
   "ident": "BIFM",
   "name": "Fagurhólsmýri Airport",
   "latitude_deg": 63.87469864,
   "longitude_deg": -16.64109993,
   "iso_country": "IS"
 },
 {
   "id": 30717,
   "ident": "BIFZ",
   "name": "Forsæti Airport",
   "latitude_deg": 63.849885,
   "longitude_deg": -20.717171,
   "iso_country": "IS"
 },
 {
   "id": 30718,
   "ident": "BIGE",
   "name": "Geysir Airport",
   "latitude_deg": 64.306592,
   "longitude_deg": -20.277114,
   "iso_country": "IS"
 },
 {
   "id": 31559,
   "ident": "BIGF",
   "name": "Grundarfjörður Airport",
   "latitude_deg": 64.99140167,
   "longitude_deg": -23.22470093,
   "iso_country": "IS"
 },
 {
   "id": 30719,
   "ident": "BIGH",
   "name": "Gunnarsholt Airport",
   "latitude_deg": 63.85329819,
   "longitude_deg": -20.26280022,
   "iso_country": "IS"
 },
 {
   "id": 31531,
   "ident": "BIGJ",
   "name": "Gjögur Airport",
   "latitude_deg": 65.99530029,
   "longitude_deg": -21.32690048,
   "iso_country": "IS"
 },
 {
   "id": 31549,
   "ident": "BIGR",
   "name": "Grímsey Airport",
   "latitude_deg": 66.5458,
   "longitude_deg": -18.0173,
   "iso_country": "IS"
 },
 {
   "id": 30720,
   "ident": "BIGS",
   "name": "Grímsstaðir Airport",
   "latitude_deg": 65.63249969,
   "longitude_deg": -16.14830017,
   "iso_country": "IS"
 },
 {
   "id": 30721,
   "ident": "BIHE",
   "name": "Herðubreiðarlindir Airport",
   "latitude_deg": 65.18859863,
   "longitude_deg": -16.19470024,
   "iso_country": "IS"
 },
 {
   "id": 30722,
   "ident": "BIHI",
   "name": "Hveravellir Airport",
   "latitude_deg": 64.88610077,
   "longitude_deg": -19.49250031,
   "iso_country": "IS"
 },
 {
   "id": 31656,
   "ident": "BIHK",
   "name": "Hólmavík Airport",
   "latitude_deg": 65.70469666,
   "longitude_deg": -21.69639969,
   "iso_country": "IS"
 },
 {
   "id": 30723,
   "ident": "BIHL",
   "name": "Hella Airport",
   "latitude_deg": 63.83580017,
   "longitude_deg": -20.37750053,
   "iso_country": "IS"
 },
 {
   "id": 120,
   "ident": "BIHN",
   "name": "Hornafjörður Airport",
   "latitude_deg": 64.295601,
   "longitude_deg": -15.2272,
   "iso_country": "IS"
 },
 {
   "id": 30724,
   "ident": "BIHR",
   "name": "Hvolsvöllur Airport",
   "latitude_deg": 63.75389862,
   "longitude_deg": -20.24419975,
   "iso_country": "IS"
 },
 {
   "id": 30725,
   "ident": "BIHS",
   "name": "Hrafnseyri Airport",
   "latitude_deg": 65.75716,
   "longitude_deg": -23.461404,
   "iso_country": "IS"
 },
 {
   "id": 30726,
   "ident": "BIHT",
   "name": "Holt Airport",
   "latitude_deg": 66.01418043,
   "longitude_deg": -23.4416914,
   "iso_country": "IS"
 },
 {
   "id": 121,
   "ident": "BIHU",
   "name": "Húsavík Airport",
   "latitude_deg": 65.952301,
   "longitude_deg": -17.426001,
   "iso_country": "IS"
 },
 {
   "id": 31657,
   "ident": "BIHV",
   "name": "Krókstaðarmelar Airport",
   "latitude_deg": 65.2664032,
   "longitude_deg": -20.84690094,
   "iso_country": "IS"
 },
 {
   "id": 30727,
   "ident": "BIHX",
   "name": "Hrauneyjarfoss Airport",
   "latitude_deg": 64.204759,
   "longitude_deg": -19.264756,
   "iso_country": "IS"
 },
 {
   "id": 30728,
   "ident": "BIHY",
   "name": "Hrísey Airport",
   "latitude_deg": 65.989204,
   "longitude_deg": -18.394117,
   "iso_country": "IS"
 },
 {
   "id": 30729,
   "ident": "BIHZ",
   "name": "Húsafell Airport",
   "latitude_deg": 64.6996994,
   "longitude_deg": -20.88360023,
   "iso_country": "IS"
 },
 {
   "id": 31603,
   "ident": "BIID",
   "name": "Ingjaldssanður Airport",
   "latitude_deg": 66.05000305,
   "longitude_deg": -23.69610023,
   "iso_country": "IS"
 },
 {
   "id": 122,
   "ident": "BIIS",
   "name": "Ísafjörður Airport",
   "latitude_deg": 66.05809784,
   "longitude_deg": -23.13529968,
   "iso_country": "IS"
 },
 {
   "id": 30731,
   "ident": "BIKA",
   "name": "Kaldármelar Airport",
   "latitude_deg": 64.77890015,
   "longitude_deg": -22.25690079,
   "iso_country": "IS"
 },
 {
   "id": 30732,
   "ident": "BIKE",
   "name": "Kerlingafjöll Airport",
   "latitude_deg": 64.70500183,
   "longitude_deg": -19.41060066,
   "iso_country": "IS"
 },
 {
   "id": 123,
   "ident": "BIKF",
   "name": "Keflavik International Airport",
   "latitude_deg": 63.985001,
   "longitude_deg": -22.6056,
   "iso_country": "IS"
 },
 {
   "id": 30733,
   "ident": "BIKJ",
   "name": "Kroksfjard-Arnes Airport",
   "latitude_deg": 65.46700287,
   "longitude_deg": -21.95000076,
   "iso_country": "IS"
 },
 {
   "id": 30734,
   "ident": "BIKL",
   "name": "Kirkjubæjarklaustur Airport",
   "latitude_deg": 63.792685,
   "longitude_deg": -18.004684,
   "iso_country": "IS"
 },
 {
   "id": 32121,
   "ident": "BIKP",
   "name": "Kópasker Airport",
   "latitude_deg": 66.31079865,
   "longitude_deg": -16.4666996,
   "iso_country": "IS"
 },
 {
   "id": 32246,
   "ident": "BIKR",
   "name": "Sauðárkrókur Airport",
   "latitude_deg": 65.73169708,
   "longitude_deg": -19.57279968,
   "iso_country": "IS"
 },
 {
   "id": 30735,
   "ident": "BIMK",
   "name": "Múlakot Airport",
   "latitude_deg": 63.71419907,
   "longitude_deg": -19.87919998,
   "iso_country": "IS"
 },
 {
   "id": 30736,
   "ident": "BIMM",
   "name": "Melgerðismelar Airport",
   "latitude_deg": 65.48329926,
   "longitude_deg": -18.16670036,
   "iso_country": "IS"
 },
 {
   "id": 30737,
   "ident": "BIMN",
   "name": "Melanes Airport",
   "latitude_deg": 65.51699829,
   "longitude_deg": -22.39999962,
   "iso_country": "IS"
 },
 {
   "id": 30738,
   "ident": "BIMS",
   "name": "Tungubakkar Airport",
   "latitude_deg": 64.18109894,
   "longitude_deg": -21.70779991,
   "iso_country": "IS"
 },
 {
   "id": 30740,
   "ident": "BIND",
   "name": "Nýjidalur Airport",
   "latitude_deg": 64.72059631,
   "longitude_deg": -18.06669998,
   "iso_country": "IS"
 },
 {
   "id": 32044,
   "ident": "BINF",
   "name": "Norðfjörður Airport",
   "latitude_deg": 65.13189697,
   "longitude_deg": -13.74639988,
   "iso_country": "IS"
 },
 {
   "id": 32096,
   "ident": "BIOF",
   "name": "Ólafsfjörður Airport",
   "latitude_deg": 66.08329773,
   "longitude_deg": -18.66670036,
   "iso_country": "IS"
 },
 {
   "id": 124,
   "ident": "BIPA",
   "name": "Patreksfjörður Airport",
   "latitude_deg": 65.555801,
   "longitude_deg": -23.965,
   "iso_country": "IS"
 },
 {
   "id": 32207,
   "ident": "BIRE",
   "name": "Reykhólar Airport",
   "latitude_deg": 65.45262909,
   "longitude_deg": -22.20611572,
   "iso_country": "IS"
 },
 {
   "id": 30741,
   "ident": "BIRF",
   "name": "Rif Airport",
   "latitude_deg": 64.91139984,
   "longitude_deg": -23.82309914,
   "iso_country": "IS"
 },
 {
   "id": 32205,
   "ident": "BIRG",
   "name": "Raufarhöfn Airport",
   "latitude_deg": 66.40640259,
   "longitude_deg": -15.91829967,
   "iso_country": "IS"
 },
 {
   "id": 125,
   "ident": "BIRK",
   "name": "Reykjavik Airport",
   "latitude_deg": 64.12999725,
   "longitude_deg": -21.94059944,
   "iso_country": "IS"
 },
 {
   "id": 31973,
   "ident": "BIRL",
   "name": "Reykjahlíð Airport",
   "latitude_deg": 65.65579987,
   "longitude_deg": -16.91810036,
   "iso_country": "IS"
 },
 {
   "id": 30742,
   "ident": "BIRS",
   "name": "Reykjanes Airport",
   "latitude_deg": 65.91419983,
   "longitude_deg": -22.42140007,
   "iso_country": "IS"
 },
 {
   "id": 30743,
   "ident": "BISA",
   "name": "Sandá Airport",
   "latitude_deg": 65.13439941,
   "longitude_deg": -19.66309929,
   "iso_country": "IS"
 },
 {
   "id": 30744,
   "ident": "BISF",
   "name": "Selfoss Airport",
   "latitude_deg": 63.92919922,
   "longitude_deg": -21.03779984,
   "iso_country": "IS"
 },
 {
   "id": 30745,
   "ident": "BISG",
   "name": "Steinasandur Airport",
   "latitude_deg": 64.16699982,
   "longitude_deg": -15.89999962,
   "iso_country": "IS"
 },
 {
   "id": 30746,
   "ident": "BISH",
   "name": "Stora-Holt Airport",
   "latitude_deg": 65.40000153,
   "longitude_deg": -21.93300056,
   "iso_country": "IS"
 },
 {
   "id": 126,
   "ident": "BISI",
   "name": "Siglufjörður Airport",
   "latitude_deg": 66.137847,
   "longitude_deg": -18.908157,
   "iso_country": "IS"
 },
 {
   "id": 30747,
   "ident": "BISK",
   "name": "Skógasandur Airport",
   "latitude_deg": 63.51720047,
   "longitude_deg": -19.48920059,
   "iso_country": "IS"
 },
 {
   "id": 30748,
   "ident": "BISN",
   "name": "Svínafell Airport",
   "latitude_deg": 64.384723,
   "longitude_deg": -15.371935,
   "iso_country": "IS"
 },
 {
   "id": 30749,
   "ident": "BISP",
   "name": "Sprengisandur Airport",
   "latitude_deg": 64.65419769,
   "longitude_deg": -18.49690056,
   "iso_country": "IS"
 },
 {
   "id": 30750,
   "ident": "BISR",
   "name": "Stórikroppur Airport",
   "latitude_deg": 64.63439941,
   "longitude_deg": -21.48749924,
   "iso_country": "IS"
 },
 {
   "id": 30751,
   "ident": "BISS",
   "name": "Sandskeið Airport",
   "latitude_deg": 64.06079865,
   "longitude_deg": -21.5746994,
   "iso_country": "IS"
 },
 {
   "id": 32415,
   "ident": "BIST",
   "name": "Stykkishólmur Airport",
   "latitude_deg": 65.05809784,
   "longitude_deg": -22.7942009,
   "iso_country": "IS"
 },
 {
   "id": 30752,
   "ident": "BISV",
   "name": "Skálavatn Airport",
   "latitude_deg": 64.11579895,
   "longitude_deg": -18.7833004,
   "iso_country": "IS"
 },
 {
   "id": 32436,
   "ident": "BITE",
   "name": "Þingeyri Airport",
   "latitude_deg": 65.87030029,
   "longitude_deg": -23.55999947,
   "iso_country": "IS"
 },
 {
   "id": 308409,
   "ident": "BITF",
   "name": "Tálknafjörður Airport",
   "latitude_deg": 65.676037,
   "longitude_deg": -24.006114,
   "iso_country": "IS"
 },
 {
   "id": 42246,
   "ident": "BITH",
   "name": "Sauðanes Airport",
   "latitude_deg": 66.251859,
   "longitude_deg": -15.273914,
   "iso_country": "IS"
 },
 {
   "id": 30754,
   "ident": "BITM",
   "name": "Þórsmörk Airport",
   "latitude_deg": 63.68999863,
   "longitude_deg": -19.56310081,
   "iso_country": "IS"
 },
 {
   "id": 127,
   "ident": "BITN",
   "name": "Þórshöfn Airport",
   "latitude_deg": 66.218498,
   "longitude_deg": -15.3356,
   "iso_country": "IS"
 },
 {
   "id": 30755,
   "ident": "BITO",
   "name": "Thorisos Airport",
   "latitude_deg": 64.354373,
   "longitude_deg": -18.836514,
   "iso_country": "IS"
 },
 {
   "id": 30757,
   "ident": "BIVA",
   "name": "Vatnsnes Airport",
   "latitude_deg": 64.03309631,
   "longitude_deg": -20.65110016,
   "iso_country": "IS"
 },
 {
   "id": 44001,
   "ident": "BIVH",
   "name": "Varmahlid Airport",
   "latitude_deg": 65.5569458,
   "longitude_deg": -19.42805672,
   "iso_country": "IS"
 },
 {
   "id": 30758,
   "ident": "BIVI",
   "name": "Vík Airport",
   "latitude_deg": 63.42169952,
   "longitude_deg": -18.88829994,
   "iso_country": "IS"
 },
 {
   "id": 128,
   "ident": "BIVM",
   "name": "Vestmannaeyjar Airport",
   "latitude_deg": 63.42430115,
   "longitude_deg": -20.27890015,
   "iso_country": "IS"
 },
 {
   "id": 32593,
   "ident": "BIVO",
   "name": "Vopnafjörður Airport",
   "latitude_deg": 65.72059631,
   "longitude_deg": -14.85060024,
   "iso_country": "IS"
 },
 {
   "id": 4614,
   "ident": "BKPR",
   "name": "Priština Adem Jashari International Airport",
   "latitude_deg": 42.5728,
   "longitude_deg": 21.035801,
   "iso_country": "XK"
 },
 {
   "id": 316472,
   "ident": "BKVR",
   "name": "Vali Ranch Heliport",
   "latitude_deg": 42.513732,
   "longitude_deg": 21.534508,
   "iso_country": "XK"
 },
 {
   "id": 34946,
   "ident": "BY-0001",
   "name": "Balbasovo Air Base",
   "latitude_deg": 54.439999,
   "longitude_deg": 30.2967,
   "iso_country": "BY"
 },
 {
   "id": 34951,
   "ident": "BY-0002",
   "name": "Bobr Air Base",
   "latitude_deg": 54.375,
   "longitude_deg": 29.376699,
   "iso_country": "BY"
 },
 {
   "id": 34952,
   "ident": "BY-0003",
   "name": "Bobrovichi Air Base",
   "latitude_deg": 52.27830124,
   "longitude_deg": 29.36000061,
   "iso_country": "BY"
 },
 {
   "id": 34957,
   "ident": "BY-0004",
   "name": "Borovtsy Air Base",
   "latitude_deg": 55.60829926,
   "longitude_deg": 28.67830086,
   "iso_country": "BY"
 },
 {
   "id": 43023,
   "ident": "BY-0005",
   "name": "Polotsk Airfield",
   "latitude_deg": 55.411667,
   "longitude_deg": 28.748333,
   "iso_country": "BY"
 },
 {
   "id": 44363,
   "ident": "BY-0006",
   "name": "Osovtsy Air Base",
   "latitude_deg": 52.55699921,
   "longitude_deg": 24.88400078,
   "iso_country": "BY"
 },
 {
   "id": 44382,
   "ident": "BY-0007",
   "name": "Bykhau Air Base",
   "latitude_deg": 53.52000046,
   "longitude_deg": 30.20000076,
   "iso_country": "BY"
 },
 {
   "id": 44997,
   "ident": "BY-0008",
   "name": "Bel Airfield",
   "latitude_deg": 53.779817,
   "longitude_deg": 31.66495,
   "iso_country": "BY"
 },
 {
   "id": 46165,
   "ident": "BY-0009",
   "name": "Lida Air Base",
   "latitude_deg": 53.877,
   "longitude_deg": 25.377,
   "iso_country": "BY"
 },
 {
   "id": 46231,
   "ident": "BY-0010",
   "name": "Borovukha-2 Helipad",
   "latitude_deg": 55.53469644,
   "longitude_deg": 28.79044533,
   "iso_country": "BY"
 },
 {
   "id": 315689,
   "ident": "BY-0011",
   "name": "Aerodrom Belz",
   "latitude_deg": 50.3771921,
   "longitude_deg": 23.9648804,
   "iso_country": "UA"
 },
 {
   "id": 315693,
   "ident": "BY-0012",
   "name": "Aerodrom Kukoviatsino",
   "latitude_deg": 55.160995,
   "longitude_deg": 29.974589,
   "iso_country": "BY"
 },
 {
   "id": 315695,
   "ident": "BY-0013",
   "name": "Mozyr",
   "latitude_deg": 51.9858414,
   "longitude_deg": 29.157581,
   "iso_country": "BY"
 },
 {
   "id": 315697,
   "ident": "BY-0014",
   "name": "Lipki Air Base",
   "latitude_deg": 53.913545,
   "longitude_deg": 27.708775,
   "iso_country": "BY"
 },
 {
   "id": 315926,
   "ident": "BY-0015",
   "name": "Aerodrom Ozerki",
   "latitude_deg": 55.144536,
   "longitude_deg": 26.829358,
   "iso_country": "BY"
 },
 {
   "id": 317423,
   "ident": "BY-0016",
   "name": "Gorki",
   "latitude_deg": 54.30052,
   "longitude_deg": 30.948463,
   "iso_country": "BY"
 },
 {
   "id": 319598,
   "ident": "BY-0017",
   "name": "Kokhanovichi Airfield",
   "latitude_deg": 55.85734,
   "longitude_deg": 28.09827,
   "iso_country": "BY"
 },
 {
   "id": 319599,
   "ident": "BY-0018",
   "name": "Bozhki Airstrip",
   "latitude_deg": 55.816719,
   "longitude_deg": 28.025859,
   "iso_country": "BY"
 },
 {
   "id": 319603,
   "ident": "BY-0019",
   "name": "Zheludok Heliport",
   "latitude_deg": 53.598206,
   "longitude_deg": 24.9719,
   "iso_country": "BY"
 },
 {
   "id": 319604,
   "ident": "BY-0020",
   "name": "Njeman Heliport",
   "latitude_deg": 53.6793,
   "longitude_deg": 25.5686,
   "iso_country": "BY"
 },
 {
   "id": 319606,
   "ident": "BY-0021",
   "name": "Drozdy Heliport",
   "latitude_deg": 53.9506,
   "longitude_deg": 27.5053,
   "iso_country": "BY"
 },
 {
   "id": 319617,
   "ident": "BY-0022",
   "name": "Dzerzhinsky Highway Strip",
   "latitude_deg": 53.68874,
   "longitude_deg": 27.339573,
   "iso_country": "BY"
 },
 {
   "id": 320231,
   "ident": "BY-0023",
   "name": "Bobruisk Aeroclub",
   "latitude_deg": 53.21033,
   "longitude_deg": 29.129039,
   "iso_country": "BY"
 },
 {
   "id": 320462,
   "ident": "BY-0024",
   "name": "Karolin Airfield",
   "latitude_deg": 53.632516,
   "longitude_deg": 23.735275,
   "iso_country": "BY"
 },
 {
   "id": 320477,
   "ident": "BY-0025",
   "name": "Voigovka Airfield",
   "latitude_deg": 53.621279,
   "longitude_deg": 27.550494,
   "iso_country": "BY"
 },
 {
   "id": 321035,
   "ident": "BY-0026",
   "name": "Komsomolskaya Airstrip",
   "latitude_deg": 53.213143,
   "longitude_deg": 27.36075,
   "iso_country": "BY"
 },
 {
   "id": 321489,
   "ident": "BY-0027",
   "name": "Kisyali Airfield",
   "latitude_deg": 54.028259,
   "longitude_deg": 26.924768,
   "iso_country": "BY"
 },
 {
   "id": 322149,
   "ident": "BY-0028",
   "name": "Vidzy Airstrip",
   "latitude_deg": 55.37879,
   "longitude_deg": 26.626022,
   "iso_country": "BY"
 },
 {
   "id": 323909,
   "ident": "BY-0029",
   "name": "Kliepačy Airstrip",
   "latitude_deg": 52.7040425,
   "longitude_deg": 24.3782919,
   "iso_country": "BY"
 },
 {
   "id": 323945,
   "ident": "BY-0030",
   "name": "Selhozaviatsii",
   "latitude_deg": 52.75557,
   "longitude_deg": 24.462681,
   "iso_country": "BY"
 },
 {
   "id": 324497,
   "ident": "BY-0031",
   "name": "Suklina Airstrip",
   "latitude_deg": 55.2516188,
   "longitude_deg": 27.9213048,
   "iso_country": "BY"
 },
 {
   "id": 326267,
   "ident": "BY-0032",
   "name": "Mazalovo Airstrip",
   "latitude_deg": 53.973285,
   "longitude_deg": 31.58801,
   "iso_country": "BY"
 },
 {
   "id": 346296,
   "ident": "BY-0033",
   "name": "Stepanovo Airstrip",
   "latitude_deg": 53.32445,
   "longitude_deg": 31.58792,
   "iso_country": "BY"
 },
 {
   "id": 346842,
   "ident": "BY-0034",
   "name": "Obsianka Airstrip",
   "latitude_deg": 54.2313,
   "longitude_deg": 30.77433,
   "iso_country": "BY"
 },
 {
   "id": 347037,
   "ident": "BY-0035",
   "name": "Ptsich Airstrip",
   "latitude_deg": 53.58516,
   "longitude_deg": 27.68329,
   "iso_country": "BY"
 },
 {
   "id": 347166,
   "ident": "BY-0036",
   "name": "Krichev Air Base",
   "latitude_deg": 53.73478,
   "longitude_deg": 31.91705,
   "iso_country": "BY"
 },
 {
   "id": 347696,
   "ident": "BY-0037",
   "name": "Mestnyy Airfield",
   "latitude_deg": 51.995,
   "longitude_deg": 24.71341,
   "iso_country": "BY"
 },
 {
   "id": 35057,
   "ident": "BY-1095",
   "name": "Postavy Air Base",
   "latitude_deg": 55.116699,
   "longitude_deg": 26.7617,
   "iso_country": "BY"
 },
 {
   "id": 35030,
   "ident": "BY-1210",
   "name": "Maladzyechna Air Base",
   "latitude_deg": 54.24829865,
   "longitude_deg": 26.87170029,
   "iso_country": "BY"
 },
 {
   "id": 35112,
   "ident": "BY-3111",
   "name": "Zhurzhevo Air Base",
   "latitude_deg": 55.255001,
   "longitude_deg": 30.2467,
   "iso_country": "BY"
 },
 {
   "id": 35060,
   "ident": "BY-4247",
   "name": "Pribytki Air Base",
   "latitude_deg": 52.30500031,
   "longitude_deg": 31.16329956,
   "iso_country": "BY"
 },
 {
   "id": 35083,
   "ident": "BY-7836",
   "name": "Smarhon Air Base",
   "latitude_deg": 54.52330017,
   "longitude_deg": 26.30669975,
   "iso_country": "BY"
 },
 {
   "id": 35026,
   "ident": "BY-9934",
   "name": "Luninets Air Base",
   "latitude_deg": 52.275002,
   "longitude_deg": 26.775,
   "iso_country": "BY"
 },
 {
   "id": 314749,
   "ident": "Cark",
   "name": "Cark airfield",
   "latitude_deg": 54.163753,
   "longitude_deg": -2.962299,
   "iso_country": "GB"
 },
 {
   "id": 43117,
   "ident": "CH-0001",
   "name": "San Vittore Heliport",
   "latitude_deg": 46.2316246,
   "longitude_deg": 9.089531898,
   "iso_country": "CH"
 },
 {
   "id": 316432,
   "ident": "CH-0002",
   "name": "Altiport de Croix de Coeur",
   "latitude_deg": 46.12338,
   "longitude_deg": 7.23425,
   "iso_country": "CH"
 },
 {
   "id": 319833,
   "ident": "CH-0003",
   "name": "Altisurface du Glacier de Prasfleuri",
   "latitude_deg": 46.064289,
   "longitude_deg": 7.354317,
   "iso_country": "CH"
 },
 {
   "id": 320391,
   "ident": "CH-0004",
   "name": "Altiport du Glacier de Tsanfleuron",
   "latitude_deg": 46.3206526,
   "longitude_deg": 7.2328797,
   "iso_country": "CH"
 },
 {
   "id": 324870,
   "ident": "CH-0005",
   "name": "Helipad Klinik Gut (St. Moritz)",
   "latitude_deg": 46.4965,
   "longitude_deg": 9.83847,
   "iso_country": "CH"
 },
 {
   "id": 324871,
   "ident": "CH-0006",
   "name": "Helipad Station Corvatsch",
   "latitude_deg": 46.417793,
   "longitude_deg": 9.820909,
   "iso_country": "CH"
 },
 {
   "id": 324872,
   "ident": "CH-0007",
   "name": "Ulrichen Air Base",
   "latitude_deg": 46.50193,
   "longitude_deg": 8.299415,
   "iso_country": "CH"
 },
 {
   "id": 43918,
   "ident": "CZ-0001",
   "name": "Factory Jihočeské Papírny Heliport",
   "latitude_deg": 48.9620018,
   "longitude_deg": 14.46253109,
   "iso_country": "CZ"
 },
 {
   "id": 43919,
   "ident": "CZ-0002",
   "name": "Hospital Heliport",
   "latitude_deg": 49.41602707,
   "longitude_deg": 14.6524868,
   "iso_country": "CZ"
 },
 {
   "id": 43920,
   "ident": "CZ-0003",
   "name": "Hospital Heliport",
   "latitude_deg": 49.13916779,
   "longitude_deg": 15.00555611,
   "iso_country": "CZ"
 },
 {
   "id": 43921,
   "ident": "CZ-0004",
   "name": "Hospital Heliport",
   "latitude_deg": 49.36249924,
   "longitude_deg": 16.65416718,
   "iso_country": "CZ"
 },
 {
   "id": 43922,
   "ident": "CZ-0005",
   "name": "Hospital Heliport",
   "latitude_deg": 49.48963928,
   "longitude_deg": 16.64654732,
   "iso_country": "CZ"
 },
 {
   "id": 43923,
   "ident": "CZ-0006",
   "name": "International Business Center Brno Heliport",
   "latitude_deg": 49.20027924,
   "longitude_deg": 16.61388969,
   "iso_country": "CZ"
 },
 {
   "id": 43924,
   "ident": "CZ-0007",
   "name": "Nemocnice/Hospital Heliport",
   "latitude_deg": 48.75222015,
   "longitude_deg": 16.8777771,
   "iso_country": "CZ"
 },
 {
   "id": 43925,
   "ident": "CZ-0008",
   "name": "Střecha Nem Hospital Heliport",
   "latitude_deg": 49.0083313,
   "longitude_deg": 17.11083221,
   "iso_country": "CZ"
 },
 {
   "id": 43926,
   "ident": "CZ-0009",
   "name": "Teaching Hospital - Building I2 Heliport",
   "latitude_deg": 49.17583466,
   "longitude_deg": 16.56944466,
   "iso_country": "CZ"
 },
 {
   "id": 43927,
   "ident": "CZ-0010",
   "name": "Teaching Hospital -Building 1 Heliport",
   "latitude_deg": 49.2035408,
   "longitude_deg": 16.61660004,
   "iso_country": "CZ"
 },
 {
   "id": 43928,
   "ident": "CZ-0011",
   "name": "Horní Staré Město Heliport",
   "latitude_deg": 50.58610916,
   "longitude_deg": 15.87861061,
   "iso_country": "CZ"
 },
 {
   "id": 43929,
   "ident": "CZ-0012",
   "name": "Hospital Heliport",
   "latitude_deg": 50.41027832,
   "longitude_deg": 16.16666794,
   "iso_country": "CZ"
 },
 {
   "id": 43930,
   "ident": "CZ-0013",
   "name": "Hradec Králové Heliport",
   "latitude_deg": 50.19333267,
   "longitude_deg": 15.8255558,
   "iso_country": "CZ"
 },
 {
   "id": 43931,
   "ident": "CZ-0014",
   "name": "Nová Amerika Heliport",
   "latitude_deg": 50.38111115,
   "longitude_deg": 15.86388874,
   "iso_country": "CZ"
 },
 {
   "id": 43932,
   "ident": "CZ-0015",
   "name": "Teaching Hospital, Clinic Karim - Roof Heliport",
   "latitude_deg": 50.19825363,
   "longitude_deg": 15.8285284,
   "iso_country": "CZ"
 },
 {
   "id": 43933,
   "ident": "CZ-0016",
   "name": "Area Of Fire And Rescue Force Heliport",
   "latitude_deg": 49.98860931,
   "longitude_deg": 17.45361137,
   "iso_country": "CZ"
 },
 {
   "id": 43934,
   "ident": "CZ-0017",
   "name": "Hospital Heliport",
   "latitude_deg": 50.09719086,
   "longitude_deg": 17.6850872,
   "iso_country": "CZ"
 },
 {
   "id": 43935,
   "ident": "CZ-0018",
   "name": "Teaching Hospital Heliport",
   "latitude_deg": 49.82722092,
   "longitude_deg": 18.15694427,
   "iso_country": "CZ"
 },
 {
   "id": 43936,
   "ident": "CZ-0019",
   "name": "The Area Of Fire And Rescue Force Heliport",
   "latitude_deg": 49.80333328,
   "longitude_deg": 18.23055649,
   "iso_country": "CZ"
 },
 {
   "id": 43937,
   "ident": "CZ-0020",
   "name": "Šumperk Heliport",
   "latitude_deg": 49.95777893,
   "longitude_deg": 16.96305656,
   "iso_country": "CZ"
 },
 {
   "id": 43938,
   "ident": "CZ-0021",
   "name": "Tabulový Vrch Heliport",
   "latitude_deg": 49.5832901,
   "longitude_deg": 17.22077751,
   "iso_country": "CZ"
 },
 {
   "id": 43939,
   "ident": "CZ-0022",
   "name": "Teaching Hospital -Surgical Pavilion Heliport",
   "latitude_deg": 49.584095,
   "longitude_deg": 17.2365284,
   "iso_country": "CZ"
 },
 {
   "id": 43940,
   "ident": "CZ-0023",
   "name": "Area Of Fire And Rescue Force Heliport",
   "latitude_deg": 49.76388931,
   "longitude_deg": 16.46249962,
   "iso_country": "CZ"
 },
 {
   "id": 43941,
   "ident": "CZ-0024",
   "name": "Hospital Heliport",
   "latitude_deg": 49.94138718,
   "longitude_deg": 15.8083334,
   "iso_country": "CZ"
 },
 {
   "id": 43942,
   "ident": "CZ-0025",
   "name": "Hospital Heliport",
   "latitude_deg": 49.4383316,
   "longitude_deg": 12.90694427,
   "iso_country": "CZ"
 },
 {
   "id": 43943,
   "ident": "CZ-0026",
   "name": "University Hospital Pilsen Helipad",
   "latitude_deg": 49.76357,
   "longitude_deg": 13.37701,
   "iso_country": "CZ"
 },
 {
   "id": 43944,
   "ident": "CZ-0027",
   "name": "Teaching Hospital Na Bulovce Heliport",
   "latitude_deg": 50.11611176,
   "longitude_deg": 14.46249962,
   "iso_country": "CZ"
 },
 {
   "id": 43945,
   "ident": "CZ-0028",
   "name": "Teaching Thomayer Hospital Heliport",
   "latitude_deg": 50.03194427,
   "longitude_deg": 14.45694447,
   "iso_country": "CZ"
 },
 {
   "id": 43946,
   "ident": "CZ-0029",
   "name": "Úvn/Central Military Hospital Střešovice -Pavilion Ch 2 Heliport",
   "latitude_deg": 50.08889008,
   "longitude_deg": 14.36305618,
   "iso_country": "CZ"
 },
 {
   "id": 43947,
   "ident": "CZ-0030",
   "name": "Area Of Fire And Rescue Force Heliport",
   "latitude_deg": 50.35194397,
   "longitude_deg": 14.4869442,
   "iso_country": "CZ"
 },
 {
   "id": 43948,
   "ident": "CZ-0031",
   "name": "Hořín Heliport",
   "latitude_deg": 50.34438324,
   "longitude_deg": 14.43802643,
   "iso_country": "CZ"
 },
 {
   "id": 43949,
   "ident": "CZ-0032",
   "name": "Hospital Heliport",
   "latitude_deg": 50.10795975,
   "longitude_deg": 13.71863842,
   "iso_country": "CZ"
 },
 {
   "id": 43950,
   "ident": "CZ-0033",
   "name": "Hospital Heliport",
   "latitude_deg": 49.83972168,
   "longitude_deg": 13.91722202,
   "iso_country": "CZ"
 },
 {
   "id": 43951,
   "ident": "CZ-0034",
   "name": "Hospital Heliport",
   "latitude_deg": 50.41916656,
   "longitude_deg": 14.90719604,
   "iso_country": "CZ"
 },
 {
   "id": 43952,
   "ident": "CZ-0035",
   "name": "Neratovice Heliport",
   "latitude_deg": 50.25416565,
   "longitude_deg": 14.52277756,
   "iso_country": "CZ"
 },
 {
   "id": 43953,
   "ident": "CZ-0036",
   "name": "Bukov Heliport",
   "latitude_deg": 50.67750168,
   "longitude_deg": 14.02388859,
   "iso_country": "CZ"
 },
 {
   "id": 43954,
   "ident": "CZ-0037",
   "name": "Hospital Heliport",
   "latitude_deg": 50.68000031,
   "longitude_deg": 14.02083302,
   "iso_country": "CZ"
 },
 {
   "id": 43955,
   "ident": "CZ-0038",
   "name": "Hospital Heliport",
   "latitude_deg": 50.45333481,
   "longitude_deg": 13.41111088,
   "iso_country": "CZ"
 },
 {
   "id": 43956,
   "ident": "CZ-0039",
   "name": "Municipal Hospital Heliport",
   "latitude_deg": 50.54198837,
   "longitude_deg": 14.14617634,
   "iso_country": "CZ"
 },
 {
   "id": 43957,
   "ident": "CZ-0040",
   "name": "Hospital Heliport",
   "latitude_deg": 49.43527985,
   "longitude_deg": 15.23111057,
   "iso_country": "CZ"
 },
 {
   "id": 43958,
   "ident": "CZ-0041",
   "name": "Hospital Heliport",
   "latitude_deg": 49.56138992,
   "longitude_deg": 16.06305695,
   "iso_country": "CZ"
 },
 {
   "id": 43959,
   "ident": "CZ-0042",
   "name": "Hospital Surgery Department Heliport",
   "latitude_deg": 49.61083221,
   "longitude_deg": 15.57222176,
   "iso_country": "CZ"
 },
 {
   "id": 43960,
   "ident": "CZ-0043",
   "name": "Střediskový Central Heliport",
   "latitude_deg": 49.39860916,
   "longitude_deg": 15.56805611,
   "iso_country": "CZ"
 },
 {
   "id": 43961,
   "ident": "CZ-0044",
   "name": "Bat’A Hospital Heliport",
   "latitude_deg": 49.2261467,
   "longitude_deg": 17.70534515,
   "iso_country": "CZ"
 },
 {
   "id": 43962,
   "ident": "CZ-0045",
   "name": "Hospital Heliport",
   "latitude_deg": 49.29138947,
   "longitude_deg": 17.38138962,
   "iso_country": "CZ"
 },
 {
   "id": 312161,
   "ident": "CZ-0046",
   "name": "Krumau Hospital Helipad",
   "latitude_deg": 48.8163,
   "longitude_deg": 14.3252,
   "iso_country": "CZ"
 },
 {
   "id": 312162,
   "ident": "CZ-0047",
   "name": "Prachatice Hospital Helipad",
   "latitude_deg": 49.00705,
   "longitude_deg": 14.00958,
   "iso_country": "CZ"
 },
 {
   "id": 315488,
   "ident": "CZ-0048",
   "name": "Borek",
   "latitude_deg": 50.2108813,
   "longitude_deg": 14.6574049,
   "iso_country": "CZ"
 },
 {
   "id": 315494,
   "ident": "CZ-0049",
   "name": "Zvole Western",
   "latitude_deg": 49.4747722,
   "longitude_deg": 16.2148815,
   "iso_country": "CZ"
 },
 {
   "id": 315495,
   "ident": "CZ-0050",
   "name": "Pěnčín",
   "latitude_deg": 49.5682909,
   "longitude_deg": 16.9991842,
   "iso_country": "CZ"
 },
 {
   "id": 315664,
   "ident": "CZ-0051",
   "name": "Bezdružice Airstrip",
   "latitude_deg": 49.899713,
   "longitude_deg": 12.964956,
   "iso_country": "CZ"
 },
 {
   "id": 315674,
   "ident": "CZ-0052",
   "name": "Letisko Veľká Ida",
   "latitude_deg": 48.5992279,
   "longitude_deg": 21.1598857,
   "iso_country": "SK"
 },
 {
   "id": 315762,
   "ident": "CZ-0053",
   "name": "Bynovec",
   "latitude_deg": 50.826389,
   "longitude_deg": 14.2675,
   "iso_country": "CZ"
 },
 {
   "id": 315763,
   "ident": "CZ-0054",
   "name": "Česká Lípa Ramŝ",
   "latitude_deg": 50.641667,
   "longitude_deg": 14.541389,
   "iso_country": "CZ"
 },
 {
   "id": 315764,
   "ident": "CZ-0055",
   "name": "Česká Třebová Airstrip",
   "latitude_deg": 49.91,
   "longitude_deg": 16.455278,
   "iso_country": "CZ"
 },
 {
   "id": 315765,
   "ident": "CZ-0056",
   "name": "Český Dub",
   "latitude_deg": 50.678056,
   "longitude_deg": 14.999722,
   "iso_country": "CZ"
 },
 {
   "id": 331511,
   "ident": "CZ-0057",
   "name": "Vodňany Airstrip",
   "latitude_deg": 49.12821,
   "longitude_deg": 14.17325,
   "iso_country": "CZ"
 },
 {
   "id": 315905,
   "ident": "CZ-0058",
   "name": "Částkovice private ULM",
   "latitude_deg": 49.4093492,
   "longitude_deg": 15.1436869,
   "iso_country": "CZ"
 },
 {
   "id": 315908,
   "ident": "CZ-0059",
   "name": "Private ULM Chabeřice",
   "latitude_deg": 49.7475687,
   "longitude_deg": 15.0642404,
   "iso_country": "CZ"
 },
 {
   "id": 316034,
   "ident": "CZ-0060",
   "name": "Studenec Ultralight",
   "latitude_deg": 50.549584,
   "longitude_deg": 15.535908,
   "iso_country": "CZ"
 },
 {
   "id": 316070,
   "ident": "CZ-0061",
   "name": "Teplice",
   "latitude_deg": 50.620833,
   "longitude_deg": 13.810556,
   "iso_country": "CZ"
 },
 {
   "id": 316163,
   "ident": "CZ-0062",
   "name": "Chotěšov UL",
   "latitude_deg": 49.651667,
   "longitude_deg": 13.189722,
   "iso_country": "CZ"
 },
 {
   "id": 316177,
   "ident": "CZ-0063",
   "name": "Kotvrdovice UL",
   "latitude_deg": 49.364167,
   "longitude_deg": 16.784167,
   "iso_country": "CZ"
 },
 {
   "id": 316178,
   "ident": "CZ-0064",
   "name": "Kramolín UL",
   "latitude_deg": 48.915,
   "longitude_deg": 14.726389,
   "iso_country": "CZ"
 },
 {
   "id": 316207,
   "ident": "CZ-0065",
   "name": "Jiřičky UL",
   "latitude_deg": 49.552222,
   "longitude_deg": 15.155556,
   "iso_country": "CZ"
 },
 {
   "id": 316210,
   "ident": "CZ-0066",
   "name": "Kaplice UL",
   "latitude_deg": 48.718611,
   "longitude_deg": 14.450556,
   "iso_country": "CZ"
 },
 {
   "id": 316219,
   "ident": "CZ-0067",
   "name": "Frymburk UL",
   "latitude_deg": 48.698611,
   "longitude_deg": 14.1975,
   "iso_country": "CZ"
 },
 {
   "id": 316222,
   "ident": "CZ-0068",
   "name": "Dobšice Heliport",
   "latitude_deg": 50.11948889,
   "longitude_deg": 15.28060833,
   "iso_country": "CZ"
 },
 {
   "id": 316223,
   "ident": "CZ-0069",
   "name": "Druzcov U Lípy UL",
   "latitude_deg": 50.728056,
   "longitude_deg": 14.924722,
   "iso_country": "CZ"
 },
 {
   "id": 316323,
   "ident": "CZ-0070",
   "name": "Stará voda",
   "latitude_deg": 49.9971221,
   "longitude_deg": 12.5773792,
   "iso_country": "CZ"
 },
 {
   "id": 316351,
   "ident": "CZ-0071",
   "name": "Vrátkov",
   "latitude_deg": 50.039444,
   "longitude_deg": 14.821667,
   "iso_country": "CZ"
 },
 {
   "id": 316438,
   "ident": "CZ-0072",
   "name": "BURANOS Aires UL",
   "latitude_deg": 50.008611,
   "longitude_deg": 14.039167,
   "iso_country": "CZ"
 },
 {
   "id": 316520,
   "ident": "CZ-0073",
   "name": "Bořitov UL",
   "latitude_deg": 49.4361111,
   "longitude_deg": 16.5941667,
   "iso_country": "CZ"
 },
 {
   "id": 316525,
   "ident": "CZ-0074",
   "name": "Miroslav Aircon UL",
   "latitude_deg": 48.931667,
   "longitude_deg": 16.339722,
   "iso_country": "CZ"
 },
 {
   "id": 316640,
   "ident": "CZ-0075",
   "name": "Slušovice",
   "latitude_deg": 49.2588889,
   "longitude_deg": 17.8133333,
   "iso_country": "CZ"
 },
 {
   "id": 316641,
   "ident": "CZ-0076",
   "name": "Milovice Air Base",
   "latitude_deg": 50.236111,
   "longitude_deg": 14.922222,
   "iso_country": "CZ"
 },
 {
   "id": 316642,
   "ident": "CZ-0077",
   "name": "Chřibská",
   "latitude_deg": 50.8580556,
   "longitude_deg": 14.4669444,
   "iso_country": "CZ"
 },
 {
   "id": 316643,
   "ident": "CZ-0078",
   "name": "Polepy",
   "latitude_deg": 50.5213889,
   "longitude_deg": 14.2716667,
   "iso_country": "CZ"
 },
 {
   "id": 316644,
   "ident": "CZ-0079",
   "name": "Říčany",
   "latitude_deg": 49.9744444,
   "longitude_deg": 14.6491667,
   "iso_country": "CZ"
 },
 {
   "id": 316645,
   "ident": "CZ-0080",
   "name": "Sázava",
   "latitude_deg": 49.8877778,
   "longitude_deg": 14.9394444,
   "iso_country": "CZ"
 },
 {
   "id": 316646,
   "ident": "CZ-0081",
   "name": "Třebíč",
   "latitude_deg": 49.1983333,
   "longitude_deg": 15.9030556,
   "iso_country": "CZ"
 },
 {
   "id": 316648,
   "ident": "CZ-0082",
   "name": "Borovník",
   "latitude_deg": 49.3586111,
   "longitude_deg": 16.2422222,
   "iso_country": "CZ"
 },
 {
   "id": 316649,
   "ident": "CZ-0083",
   "name": "Škudly",
   "latitude_deg": 50.0219444,
   "longitude_deg": 15.5205556,
   "iso_country": "CZ"
 },
 {
   "id": 316650,
   "ident": "CZ-0084",
   "name": "Dačice",
   "latitude_deg": 49.07,
   "longitude_deg": 15.4558333,
   "iso_country": "CZ"
 },
 {
   "id": 316656,
   "ident": "CZ-0085",
   "name": "Jehnědí",
   "latitude_deg": 49.965,
   "longitude_deg": 16.3097222,
   "iso_country": "CZ"
 },
 {
   "id": 316657,
   "ident": "CZ-0086",
   "name": "Kunětice",
   "latitude_deg": 50.0683333,
   "longitude_deg": 15.8125,
   "iso_country": "CZ"
 },
 {
   "id": 316658,
   "ident": "CZ-0087",
   "name": "Charvátce",
   "latitude_deg": 50.4336111,
   "longitude_deg": 13.8113889,
   "iso_country": "CZ"
 },
 {
   "id": 316659,
   "ident": "CZ-0088",
   "name": "Letovice",
   "latitude_deg": 49.5466667,
   "longitude_deg": 16.5986111,
   "iso_country": "CZ"
 },
 {
   "id": 316660,
   "ident": "CZ-0089",
   "name": "Lomnice nad Popelkou",
   "latitude_deg": 50.54,
   "longitude_deg": 15.3880556,
   "iso_country": "CZ"
 },
 {
   "id": 316680,
   "ident": "CZ-0090",
   "name": "Boršice",
   "latitude_deg": 49.0513889,
   "longitude_deg": 17.3675,
   "iso_country": "CZ"
 },
 {
   "id": 316681,
   "ident": "CZ-0091",
   "name": "Horní Počáply",
   "latitude_deg": 50.4180556,
   "longitude_deg": 14.3841667,
   "iso_country": "CZ"
 },
 {
   "id": 316684,
   "ident": "CZ-0092",
   "name": "Strážnice",
   "latitude_deg": 48.8877778,
   "longitude_deg": 17.2944444,
   "iso_country": "CZ"
 },
 {
   "id": 316685,
   "ident": "CZ-0093",
   "name": "Boleradice",
   "latitude_deg": 48.9619444,
   "longitude_deg": 16.8316667,
   "iso_country": "CZ"
 },
 {
   "id": 316691,
   "ident": "CZ-0094",
   "name": "Opava",
   "latitude_deg": 49.9405556,
   "longitude_deg": 17.9861111,
   "iso_country": "CZ"
 },
 {
   "id": 316807,
   "ident": "CZ-0095",
   "name": "Doudleby",
   "latitude_deg": 48.8851123,
   "longitude_deg": 14.4862242,
   "iso_country": "CZ"
 },
 {
   "id": 317681,
   "ident": "CZ-0096",
   "name": "Hory",
   "latitude_deg": 50.21695,
   "longitude_deg": 12.77669,
   "iso_country": "CZ"
 },
 {
   "id": 317687,
   "ident": "CZ-0097",
   "name": "Dvorce",
   "latitude_deg": 48.99913,
   "longitude_deg": 14.72214,
   "iso_country": "CZ"
 },
 {
   "id": 317697,
   "ident": "CZ-0098",
   "name": "Ostrov",
   "latitude_deg": 50.3366667,
   "longitude_deg": 12.9697222,
   "iso_country": "CZ"
 },
 {
   "id": 317698,
   "ident": "CZ-0099",
   "name": "Bystřice",
   "latitude_deg": 49.5227778,
   "longitude_deg": 16.2322222,
   "iso_country": "CZ"
 },
 {
   "id": 317781,
   "ident": "CZ-0100",
   "name": "Choteč",
   "latitude_deg": 50.4338889,
   "longitude_deg": 15.5305556,
   "iso_country": "CZ"
 },
 {
   "id": 317836,
   "ident": "CZ-0101",
   "name": "Dětřichov Oáza",
   "latitude_deg": 49.7291667,
   "longitude_deg": 17.1180556,
   "iso_country": "CZ"
 },
 {
   "id": 317839,
   "ident": "CZ-0102",
   "name": "Záhoří",
   "latitude_deg": 49.466389,
   "longitude_deg": 17.665278,
   "iso_country": "CZ"
 },
 {
   "id": 317875,
   "ident": "CZ-0103",
   "name": "Střemy Airstrip",
   "latitude_deg": 50.385,
   "longitude_deg": 14.577222,
   "iso_country": "CZ"
 },
 {
   "id": 317878,
   "ident": "CZ-0104",
   "name": "Plešnice Airport",
   "latitude_deg": 49.772222,
   "longitude_deg": 13.162222,
   "iso_country": "CZ"
 },
 {
   "id": 317881,
   "ident": "CZ-0105",
   "name": "Rohozec",
   "latitude_deg": 49.9819444,
   "longitude_deg": 15.3927778,
   "iso_country": "CZ"
 },
 {
   "id": 318901,
   "ident": "CZ-0106",
   "name": "Sazomín Ultralight Field",
   "latitude_deg": 49.5086111,
   "longitude_deg": 15.9711111,
   "iso_country": "CZ"
 },
 {
   "id": 320301,
   "ident": "CZ-0107",
   "name": "Litoměřice",
   "latitude_deg": 50.5265146,
   "longitude_deg": 14.18616,
   "iso_country": "CZ"
 },
 {
   "id": 320317,
   "ident": "CZ-0108",
   "name": "Bezno Airstrip",
   "latitude_deg": 50.356925,
   "longitude_deg": 14.8068316,
   "iso_country": "CZ"
 },
 {
   "id": 320355,
   "ident": "CZ-0109",
   "name": "Dušníky ULM",
   "latitude_deg": 50.4127778,
   "longitude_deg": 14.1980556,
   "iso_country": "CZ"
 },
 {
   "id": 320356,
   "ident": "CZ-0110",
   "name": "Miroslav ULM",
   "latitude_deg": 48.9313889,
   "longitude_deg": 16.2986111,
   "iso_country": "CZ"
 },
 {
   "id": 320394,
   "ident": "CZ-0111",
   "name": "Příchvoj Airstrip",
   "latitude_deg": 50.4413502,
   "longitude_deg": 15.2359791,
   "iso_country": "CZ"
 },
 {
   "id": 320395,
   "ident": "CZ-0112",
   "name": "Kralovice Airstrip",
   "latitude_deg": 49.985091,
   "longitude_deg": 13.528817,
   "iso_country": "CZ"
 },
 {
   "id": 320396,
   "ident": "CZ-0113",
   "name": "Katovice Airstrip",
   "latitude_deg": 49.268355,
   "longitude_deg": 13.800776,
   "iso_country": "CZ"
 },
 {
   "id": 320397,
   "ident": "CZ-0114",
   "name": "Dolní Tošanovice Airstrip",
   "latitude_deg": 49.682351,
   "longitude_deg": 18.479829,
   "iso_country": "CZ"
 },
 {
   "id": 320402,
   "ident": "CZ-0115",
   "name": "Kněžmost Airstrip",
   "latitude_deg": 50.4786227,
   "longitude_deg": 15.0055081,
   "iso_country": "CZ"
 },
 {
   "id": 320403,
   "ident": "CZ-0116",
   "name": "Dynín Airstrip",
   "latitude_deg": 49.128341,
   "longitude_deg": 14.633441,
   "iso_country": "CZ"
 },
 {
   "id": 320404,
   "ident": "CZ-0117",
   "name": "Zbudov Airstrip",
   "latitude_deg": 50.1115322,
   "longitude_deg": 16.5174506,
   "iso_country": "CZ"
 },
 {
   "id": 320405,
   "ident": "CZ-0118",
   "name": "Kozojedy Airstrip",
   "latitude_deg": 50.3250052,
   "longitude_deg": 15.3889036,
   "iso_country": "CZ"
 },
 {
   "id": 320406,
   "ident": "CZ-0119",
   "name": "Letiště Poličná / Juřinka",
   "latitude_deg": 49.4763957,
   "longitude_deg": 17.9254001,
   "iso_country": "CZ"
 },
 {
   "id": 320463,
   "ident": "CZ-0120",
   "name": "Letiště Ivančice u Brna",
   "latitude_deg": 49.0953743,
   "longitude_deg": 16.4805158,
   "iso_country": "CZ"
 },
 {
   "id": 320480,
   "ident": "CZ-0121",
   "name": "Kelč Airstrip",
   "latitude_deg": 49.4577713,
   "longitude_deg": 17.8201705,
   "iso_country": "CZ"
 },
 {
   "id": 320503,
   "ident": "CZ-0122",
   "name": "Chotěnov Airstrip",
   "latitude_deg": 49.8241768,
   "longitude_deg": 16.1947127,
   "iso_country": "CZ"
 },
 {
   "id": 320509,
   "ident": "CZ-0123",
   "name": "Štětí Airstrip",
   "latitude_deg": 50.465,
   "longitude_deg": 14.4061111,
   "iso_country": "CZ"
 },
 {
   "id": 320511,
   "ident": "CZ-0124",
   "name": "Letiště Všeň",
   "latitude_deg": 50.55596,
   "longitude_deg": 15.09287,
   "iso_country": "CZ"
 },
 {
   "id": 320563,
   "ident": "CZ-0125",
   "name": "Letiště Kněžice u Jičína",
   "latitude_deg": 50.262998,
   "longitude_deg": 15.297407,
   "iso_country": "CZ"
 },
 {
   "id": 320564,
   "ident": "CZ-0126",
   "name": "Letiště Poděbrady",
   "latitude_deg": 50.1844783,
   "longitude_deg": 15.1663157,
   "iso_country": "CZ"
 },
 {
   "id": 320675,
   "ident": "CZ-0127",
   "name": "Letiště Opava - Kylešovice",
   "latitude_deg": 49.8991666,
   "longitude_deg": 17.9229588,
   "iso_country": "CZ"
 },
 {
   "id": 320718,
   "ident": "CZ-0128",
   "name": "Velké Pavlovice ULM",
   "latitude_deg": 48.880556,
   "longitude_deg": 16.825,
   "iso_country": "CZ"
 },
 {
   "id": 320900,
   "ident": "CZ-0129",
   "name": "Osičiny Airstrip",
   "latitude_deg": 50.0158333,
   "longitude_deg": 14.7722222,
   "iso_country": "CZ"
 },
 {
   "id": 320944,
   "ident": "CZ-0130",
   "name": "Libchava Airstrip",
   "latitude_deg": 50.7031613,
   "longitude_deg": 14.4992199,
   "iso_country": "CZ"
 },
 {
   "id": 321024,
   "ident": "CZ-0131",
   "name": "Želeč Airstrip",
   "latitude_deg": 49.3305554,
   "longitude_deg": 14.6588888,
   "iso_country": "CZ"
 },
 {
   "id": 321025,
   "ident": "CZ-0132",
   "name": "Bojkovice Airfield",
   "latitude_deg": 49.0302777,
   "longitude_deg": 17.8172221,
   "iso_country": "CZ"
 },
 {
   "id": 321061,
   "ident": "CZ-0133",
   "name": "Křinec Airstrip",
   "latitude_deg": 50.2547002,
   "longitude_deg": 15.1251079,
   "iso_country": "CZ"
 },
 {
   "id": 321063,
   "ident": "CZ-0134",
   "name": "Nová Včelnice Airstrip",
   "latitude_deg": 49.2672221,
   "longitude_deg": 15.0777777,
   "iso_country": "CZ"
 },
 {
   "id": 321089,
   "ident": "CZ-0135",
   "name": "Litomyšl Airstrip",
   "latitude_deg": 49.8744443,
   "longitude_deg": 16.3352777,
   "iso_country": "CZ"
 },
 {
   "id": 321090,
   "ident": "CZ-0136",
   "name": "Strachotice Airstrip",
   "latitude_deg": 48.806369,
   "longitude_deg": 16.162371,
   "iso_country": "CZ"
 },
 {
   "id": 321091,
   "ident": "CZ-0137",
   "name": "Radovesice Airfield",
   "latitude_deg": 50.4088888,
   "longitude_deg": 14.0838888,
   "iso_country": "CZ"
 },
 {
   "id": 321098,
   "ident": "CZ-0138",
   "name": "Loučeň Airstrip",
   "latitude_deg": 50.2787436,
   "longitude_deg": 15.0610071,
   "iso_country": "CZ"
 },
 {
   "id": 321099,
   "ident": "CZ-0139",
   "name": "Letiště Košice u Tábora",
   "latitude_deg": 49.318055,
   "longitude_deg": 14.749167,
   "iso_country": "CZ"
 },
 {
   "id": 321143,
   "ident": "CZ-0140",
   "name": "Černovice u Tábora Airstrip",
   "latitude_deg": 49.3761111,
   "longitude_deg": 14.9938889,
   "iso_country": "CZ"
 },
 {
   "id": 321144,
   "ident": "CZ-0141",
   "name": "Libkovice",
   "latitude_deg": 50.5613889,
   "longitude_deg": 13.6838889,
   "iso_country": "CZ"
 },
 {
   "id": 321321,
   "ident": "CZ-0142",
   "name": "Zbilidy UL",
   "latitude_deg": 49.448033,
   "longitude_deg": 15.440085,
   "iso_country": "CZ"
 },
 {
   "id": 321499,
   "ident": "CZ-0143",
   "name": "Letiště Stará Paka",
   "latitude_deg": 50.5013889,
   "longitude_deg": 15.4830556,
   "iso_country": "CZ"
 },
 {
   "id": 321506,
   "ident": "CZ-0144",
   "name": "Letiště Velešín",
   "latitude_deg": 48.826667,
   "longitude_deg": 14.449167,
   "iso_country": "CZ"
 },
 {
   "id": 321516,
   "ident": "CZ-0145",
   "name": "Letiste Lipová",
   "latitude_deg": 51.0087306,
   "longitude_deg": 14.3438527,
   "iso_country": "CZ"
 },
 {
   "id": 321537,
   "ident": "CZ-0146",
   "name": "Jinošov Airstrip",
   "latitude_deg": 49.2275,
   "longitude_deg": 16.1738889,
   "iso_country": "CZ"
 },
 {
   "id": 321662,
   "ident": "CZ-0147",
   "name": "Letiště Bánov",
   "latitude_deg": 48.9833989,
   "longitude_deg": 17.7045864,
   "iso_country": "CZ"
 },
 {
   "id": 321668,
   "ident": "CZ-0148",
   "name": "Veselí",
   "latitude_deg": 50.0069444,
   "longitude_deg": 15.6177777,
   "iso_country": "CZ"
 },
 {
   "id": 321738,
   "ident": "CZ-0149",
   "name": "Letiště Komárovice",
   "latitude_deg": 49.3396342,
   "longitude_deg": 15.6734886,
   "iso_country": "CZ"
 },
 {
   "id": 322254,
   "ident": "CZ-0150",
   "name": "Milotice Airstrip",
   "latitude_deg": 48.9361588,
   "longitude_deg": 17.124342,
   "iso_country": "CZ"
 },
 {
   "id": 323115,
   "ident": "CZ-0151",
   "name": "Baška",
   "latitude_deg": 49.643056,
   "longitude_deg": 18.351667,
   "iso_country": "CZ"
 },
 {
   "id": 323117,
   "ident": "CZ-0152",
   "name": "Trutnov",
   "latitude_deg": 50.5675,
   "longitude_deg": 15.865278,
   "iso_country": "CZ"
 },
 {
   "id": 323118,
   "ident": "CZ-0153",
   "name": "Místek",
   "latitude_deg": 49.6527778,
   "longitude_deg": 18.3458333,
   "iso_country": "CZ"
 },
 {
   "id": 323186,
   "ident": "CZ-0154",
   "name": "Letiště Hať u Hlučína",
   "latitude_deg": 49.951812,
   "longitude_deg": 18.2651648,
   "iso_country": "CZ"
 },
 {
   "id": 323242,
   "ident": "CZ-0155",
   "name": "Letiště Náchod",
   "latitude_deg": 50.4130556,
   "longitude_deg": 16.1216667,
   "iso_country": "CZ"
 },
 {
   "id": 323305,
   "ident": "CZ-0156",
   "name": "Moravský Beroun",
   "latitude_deg": 49.786111,
   "longitude_deg": 17.486111,
   "iso_country": "CZ"
 },
 {
   "id": 323308,
   "ident": "CZ-0157",
   "name": "Šumvald UL",
   "latitude_deg": 49.845196,
   "longitude_deg": 17.138485,
   "iso_country": "CZ"
 },
 {
   "id": 323646,
   "ident": "CZ-0158",
   "name": "Sedliště Airstrip",
   "latitude_deg": 49.7220654,
   "longitude_deg": 18.3749167,
   "iso_country": "CZ"
 },
 {
   "id": 323740,
   "ident": "CZ-0159",
   "name": "Konojedy Airstrip",
   "latitude_deg": 49.9511008,
   "longitude_deg": 14.8699442,
   "iso_country": "CZ"
 },
 {
   "id": 324047,
   "ident": "CZ-0160",
   "name": "Letiště Milhostov",
   "latitude_deg": 50.1629324,
   "longitude_deg": 12.4607608,
   "iso_country": "CZ"
 },
 {
   "id": 324117,
   "ident": "CZ-0161",
   "name": "Letiště Luhačovice",
   "latitude_deg": 49.088188,
   "longitude_deg": 17.718769,
   "iso_country": "CZ"
 },
 {
   "id": 325352,
   "ident": "CZ-0162",
   "name": "Letiště Mladá",
   "latitude_deg": 50.243594,
   "longitude_deg": 14.8558562,
   "iso_country": "CZ"
 },
 {
   "id": 326492,
   "ident": "CZ-0163",
   "name": "Hatě",
   "latitude_deg": 48.7615521,
   "longitude_deg": 16.0554078,
   "iso_country": "CZ"
 },
 {
   "id": 328779,
   "ident": "CZ-0164",
   "name": "Hrochův Týnec Airstrip",
   "latitude_deg": 49.9462027,
   "longitude_deg": 15.8954004,
   "iso_country": "CZ"
 },
 {
   "id": 331647,
   "ident": "CZ-0165",
   "name": "Bořetice Airstrip",
   "latitude_deg": 48.9170378,
   "longitude_deg": 16.8413172,
   "iso_country": "CZ"
 },
 {
   "id": 333103,
   "ident": "CZ-0166",
   "name": "Chvojenec Airstrip",
   "latitude_deg": 50.105662,
   "longitude_deg": 15.925798,
   "iso_country": "CZ"
 },
 {
   "id": 333591,
   "ident": "CZ-0167",
   "name": "Dolní Bojanovice Airstrip",
   "latitude_deg": 48.85482,
   "longitude_deg": 17.01794,
   "iso_country": "CZ"
 },
 {
   "id": 334098,
   "ident": "CZ-0168",
   "name": "Šeborov Airstrip",
   "latitude_deg": 49.356253,
   "longitude_deg": 15.926403,
   "iso_country": "CZ"
 },
 {
   "id": 334166,
   "ident": "CZ-0169",
   "name": "Letiště Kejžlice",
   "latitude_deg": 49.591899,
   "longitude_deg": 15.401365,
   "iso_country": "CZ"
 },
 {
   "id": 341290,
   "ident": "CZ-0170",
   "name": "Budkovice Airfield",
   "latitude_deg": 49.079657,
   "longitude_deg": 16.355124,
   "iso_country": "CZ"
 },
 {
   "id": 342644,
   "ident": "CZ-0171",
   "name": "Rovná Airstrip",
   "latitude_deg": 50.10129,
   "longitude_deg": 12.67911,
   "iso_country": "CZ"
 },
 {
   "id": 345217,
   "ident": "CZ-0172",
   "name": "Letiště Orlová",
   "latitude_deg": 49.85503,
   "longitude_deg": 18.43521,
   "iso_country": "CZ"
 },
 {
   "id": 345235,
   "ident": "CZ-0173",
   "name": "Dolany Airstrip",
   "latitude_deg": 50.39862,
   "longitude_deg": 15.98741,
   "iso_country": "CZ"
 },
 {
   "id": 345635,
   "ident": "CZ-0174",
   "name": "Strachotín u Mikulova Airstrip",
   "latitude_deg": 48.91722,
   "longitude_deg": 16.65883,
   "iso_country": "CZ"
 },
 {
   "id": 345654,
   "ident": "CZ-0175",
   "name": "Bobrová Airstrip UL",
   "latitude_deg": 49.4955,
   "longitude_deg": 16.10199,
   "iso_country": "CZ"
 },
 {
   "id": 346202,
   "ident": "CZ-0176",
   "name": "Letiště Třebihošť",
   "latitude_deg": 50.43546,
   "longitude_deg": 15.69312,
   "iso_country": "CZ"
 },
 {
   "id": 346293,
   "ident": "CZ-0177",
   "name": "Luka nad Jihlavou Airstrip",
   "latitude_deg": 49.38244,
   "longitude_deg": 15.71368,
   "iso_country": "CZ"
 },
 {
   "id": 346374,
   "ident": "CZ-0178",
   "name": "Hrabice airstrip",
   "latitude_deg": 49.06812,
   "longitude_deg": 13.7603,
   "iso_country": "CZ"
 },
 {
   "id": 346616,
   "ident": "CZ-0179",
   "name": "Přešťovice Airstrip",
   "latitude_deg": 49.28433,
   "longitude_deg": 13.96873,
   "iso_country": "CZ"
 },
 {
   "id": 346769,
   "ident": "CZ-0180",
   "name": "Airstrip Jestřabí v Krkonoších",
   "latitude_deg": 50.68215,
   "longitude_deg": 15.48237,
   "iso_country": "CZ"
 },
 {
   "id": 346807,
   "ident": "CZ-0181",
   "name": "Manětín Airstrip",
   "latitude_deg": 49.9825,
   "longitude_deg": 13.22589,
   "iso_country": "CZ"
 },
 {
   "id": 346839,
   "ident": "CZ-0182",
   "name": "Kostelec Airstrip",
   "latitude_deg": 49.67076,
   "longitude_deg": 13.03224,
   "iso_country": "CZ"
 },
 {
   "id": 346856,
   "ident": "CZ-0183",
   "name": "Moravské Budějovice",
   "latitude_deg": 49.04304,
   "longitude_deg": 15.82813,
   "iso_country": "CZ"
 },
 {
   "id": 348583,
   "ident": "CZ-0184",
   "name": "Jilemnice",
   "latitude_deg": 50.6104,
   "longitude_deg": 15.538,
   "iso_country": "CZ"
 },
 {
   "id": 348869,
   "ident": "CZ-0185",
   "name": "Mříčná Airstrip",
   "latitude_deg": 50.59624,
   "longitude_deg": 15.48122,
   "iso_country": "CZ"
 },
 {
   "id": 45044,
   "ident": "DE-0001",
   "name": "Klinikum am Plattenwald Helipad",
   "latitude_deg": 49.212856,
   "longitude_deg": 9.236728549,
   "iso_country": "DE"
 },
 {
   "id": 332693,
   "ident": "DE-0002",
   "name": "Ahlhorn Highway Strip Autobahn-Notlandeplatz NLP",
   "latitude_deg": 52.929984,
   "longitude_deg": 8.173538,
   "iso_country": "DE"
 },
 {
   "id": 299694,
   "ident": "DE-0003",
   "name": "August-Euler Flugplatz",
   "latitude_deg": 49.853757,
   "longitude_deg": 8.586243,
   "iso_country": "DE"
 },
 {
   "id": 28576,
   "ident": "DE-0004",
   "name": "Flugplatz Gransee",
   "latitude_deg": 53.006699,
   "longitude_deg": 13.205,
   "iso_country": "DE"
 },
 {
   "id": 322973,
   "ident": "DE-0005",
   "name": "Warngau Airfield",
   "latitude_deg": 47.825011,
   "longitude_deg": 11.703733,
   "iso_country": "DE"
 },
 {
   "id": 43128,
   "ident": "DE-0006",
   "name": "Sonderlandeplatz Locktow",
   "latitude_deg": 52.11639,
   "longitude_deg": 12.709444,
   "iso_country": "DE"
 },
 {
   "id": 43695,
   "ident": "DE-0007",
   "name": "Wünsdorf Airfield",
   "latitude_deg": 52.19800186,
   "longitude_deg": 13.52700043,
   "iso_country": "DE"
 },
 {
   "id": 44460,
   "ident": "DE-0008",
   "name": "Steinstücken Helipad",
   "latitude_deg": 52.39020157,
   "longitude_deg": 13.12860012,
   "iso_country": "DE"
 },
 {
   "id": 44461,
   "ident": "DE-0009",
   "name": "Sperenberg Air Base",
   "latitude_deg": 52.13999939,
   "longitude_deg": 13.30500031,
   "iso_country": "DE"
 },
 {
   "id": 44462,
   "ident": "DE-0010",
   "name": "Straubing Airfield",
   "latitude_deg": 48.82799911,
   "longitude_deg": 12.56099987,
   "iso_country": "DE"
 },
 {
   "id": 44463,
   "ident": "DE-0011",
   "name": "Strausberg Helipad",
   "latitude_deg": 52.52489853,
   "longitude_deg": 13.8302002,
   "iso_country": "DE"
 },
 {
   "id": 44464,
   "ident": "DE-0012",
   "name": "Schönwalde Airfield",
   "latitude_deg": 52.617453,
   "longitude_deg": 13.15958,
   "iso_country": "DE"
 },
 {
   "id": 44468,
   "ident": "DE-0013",
   "name": "Johannisthal Airfield",
   "latitude_deg": 52.43799973,
   "longitude_deg": 13.52499962,
   "iso_country": "DE"
 },
 {
   "id": 44583,
   "ident": "DE-0014",
   "name": "Rostock University Helipad",
   "latitude_deg": 54.08330154,
   "longitude_deg": 12.10050011,
   "iso_country": "DE"
 },
 {
   "id": 44584,
   "ident": "DE-0015",
   "name": "Dresden Friedrichstadt Hospital Helipad",
   "latitude_deg": 51.05810165,
   "longitude_deg": 13.71899986,
   "iso_country": "DE"
 },
 {
   "id": 44585,
   "ident": "DE-0016",
   "name": "Erlangen Ebrardstrasse Helipad",
   "latitude_deg": 49.60200119,
   "longitude_deg": 11.02250004,
   "iso_country": "DE"
 },
 {
   "id": 44586,
   "ident": "DE-0017",
   "name": "Kelley Barracks Helipad",
   "latitude_deg": 48.72169876,
   "longitude_deg": 9.181500435,
   "iso_country": "DE"
 },
 {
   "id": 44587,
   "ident": "DE-0018",
   "name": "Frankfurt am Main Accident Hospital Roof Helipad",
   "latitude_deg": 50.145401,
   "longitude_deg": 8.710300446,
   "iso_country": "DE"
 },
 {
   "id": 44588,
   "ident": "DE-0019",
   "name": "Frankfurt am Main Accident Hospital Ground Helipad",
   "latitude_deg": 50.14410019,
   "longitude_deg": 8.709600449,
   "iso_country": "DE"
 },
 {
   "id": 44589,
   "ident": "DE-0020",
   "name": "Industriepark Hoechst Helipad",
   "latitude_deg": 50.08929825,
   "longitude_deg": 8.538100243,
   "iso_country": "DE"
 },
 {
   "id": 44590,
   "ident": "DE-0021",
   "name": "Biblis Nuclear Power Plant Helipad",
   "latitude_deg": 49.70750046,
   "longitude_deg": 8.417499542,
   "iso_country": "DE"
 },
 {
   "id": 44591,
   "ident": "DE-0022",
   "name": "Mainz ZDF-Complex Helipad",
   "latitude_deg": 49.96620178,
   "longitude_deg": 8.21269989,
   "iso_country": "DE"
 },
 {
   "id": 44592,
   "ident": "DE-0023",
   "name": "Bernkastel-Kues Cusanus Hospital Helipad",
   "latitude_deg": 49.91569901,
   "longitude_deg": 7.062300205,
   "iso_country": "DE"
 },
 {
   "id": 44593,
   "ident": "DE-0024",
   "name": "Remagen Rolandseck Helipad",
   "latitude_deg": 50.63209915,
   "longitude_deg": 7.207699776,
   "iso_country": "DE"
 },
 {
   "id": 44594,
   "ident": "DE-0025",
   "name": "Osnabrück Hospital Helipad",
   "latitude_deg": 52.2779007,
   "longitude_deg": 8.004799843,
   "iso_country": "DE"
 },
 {
   "id": 44595,
   "ident": "DE-0026",
   "name": "Meppen Ludmillenstift Hospital Helipad",
   "latitude_deg": 52.6894989,
   "longitude_deg": 7.294400215,
   "iso_country": "DE"
 },
 {
   "id": 44596,
   "ident": "DE-0027",
   "name": "Grafenrheinfeld Nuclear Power Plant Helipad",
   "latitude_deg": 49.9822998,
   "longitude_deg": 10.19139957,
   "iso_country": "DE"
 },
 {
   "id": 45184,
   "ident": "DE-0028",
   "name": "Wittstock Air Base",
   "latitude_deg": 53.201,
   "longitude_deg": 12.524,
   "iso_country": "DE"
 },
 {
   "id": 45185,
   "ident": "DE-0029",
   "name": "Berlinchen Airfield",
   "latitude_deg": 53.22517752,
   "longitude_deg": 12.56552696,
   "iso_country": "DE"
 },
 {
   "id": 45224,
   "ident": "DE-0030",
   "name": "Traunstein Hospital Helipad",
   "latitude_deg": 47.87414103,
   "longitude_deg": 12.63141274,
   "iso_country": "DE"
 },
 {
   "id": 45225,
   "ident": "DE-0031",
   "name": "Bad Reichenhall Hospital Helipad",
   "latitude_deg": 47.72849223,
   "longitude_deg": 12.87248433,
   "iso_country": "DE"
 },
 {
   "id": 45226,
   "ident": "DE-0032",
   "name": "Berchtesgaden Hospital Helipad",
   "latitude_deg": 47.64034523,
   "longitude_deg": 13.00605297,
   "iso_country": "DE"
 },
 {
   "id": 45227,
   "ident": "DE-0033",
   "name": "Freilassing Hospital Helipad",
   "latitude_deg": 47.8484972,
   "longitude_deg": 12.97974318,
   "iso_country": "DE"
 },
 {
   "id": 45228,
   "ident": "DE-0034",
   "name": "Trostberg Hospital Helipad",
   "latitude_deg": 48.02913326,
   "longitude_deg": 12.54318953,
   "iso_country": "DE"
 },
 {
   "id": 307050,
   "ident": "DE-0035",
   "name": "Helgoland Navy Helicopter Base",
   "latitude_deg": 54.175308,
   "longitude_deg": 7.890028,
   "iso_country": "DE"
 },
 {
   "id": 300109,
   "ident": "DE-0036",
   "name": "Grafenwöhr Medevac Helipad",
   "latitude_deg": 49.70805556,
   "longitude_deg": 11.91611111,
   "iso_country": "DE"
 },
 {
   "id": 300115,
   "ident": "DE-0037",
   "name": "Vilseck Main Army Heliport",
   "latitude_deg": 49.64944444,
   "longitude_deg": 11.80583333,
   "iso_country": "DE"
 },
 {
   "id": 308152,
   "ident": "DE-0038",
   "name": "Utscheid Segelflugplatz",
   "latitude_deg": 49.99777778,
   "longitude_deg": 6.342777778,
   "iso_country": "DE"
 },
 {
   "id": 308153,
   "ident": "DE-0039",
   "name": "Aichach Glider Field",
   "latitude_deg": 48.471798,
   "longitude_deg": 11.134349,
   "iso_country": "DE"
 },
 {
   "id": 308157,
   "ident": "DE-0040",
   "name": "Zierenberg Airfield",
   "latitude_deg": 51.367,
   "longitude_deg": 9.336,
   "iso_country": "DE"
 },
 {
   "id": 308158,
   "ident": "DE-0041",
   "name": "Zellhausen Gliderport",
   "latitude_deg": 50.018845,
   "longitude_deg": 8.984376,
   "iso_country": "DE"
 },
 {
   "id": 308179,
   "ident": "DE-0042",
   "name": "Segelflugplatz Weißenburg-Wülzburg",
   "latitude_deg": 49.025851,
   "longitude_deg": 11.018746,
   "iso_country": "DE"
 },
 {
   "id": 308187,
   "ident": "DE-0043",
   "name": "Wilsche Glider Field",
   "latitude_deg": 52.524677,
   "longitude_deg": 10.462597,
   "iso_country": "DE"
 },
 {
   "id": 308191,
   "ident": "DE-0044",
   "name": "Witzenhausen-Burgberg Glider Field",
   "latitude_deg": 51.349735,
   "longitude_deg": 9.824789,
   "iso_country": "DE"
 },
 {
   "id": 308192,
   "ident": "DE-0045",
   "name": "Kleve-Wisseler Dünen Airfield",
   "latitude_deg": 51.769461,
   "longitude_deg": 6.299106,
   "iso_country": "DE"
 },
 {
   "id": 308196,
   "ident": "DE-0046",
   "name": "Wildberg Glider Airfield",
   "latitude_deg": 48.637325,
   "longitude_deg": 8.733327,
   "iso_country": "DE"
 },
 {
   "id": 308197,
   "ident": "DE-0047",
   "name": "Wächtersberg-Hub Glider Airfield",
   "latitude_deg": 48.614931,
   "longitude_deg": 8.755457,
   "iso_country": "DE"
 },
 {
   "id": 308199,
   "ident": "DE-0048",
   "name": "Steinberg in Surwold Glider Airfield",
   "latitude_deg": 52.956445,
   "longitude_deg": 7.556663,
   "iso_country": "DE"
 },
 {
   "id": 308209,
   "ident": "DE-0049",
   "name": "Flugplatz Altfeld",
   "latitude_deg": 49.831865,
   "longitude_deg": 9.537292,
   "iso_country": "DE"
 },
 {
   "id": 308211,
   "ident": "DE-0050",
   "name": "Alsfeld Airfield",
   "latitude_deg": 50.750565,
   "longitude_deg": 9.248615,
   "iso_country": "DE"
 },
 {
   "id": 308215,
   "ident": "DE-0051",
   "name": "Altdorf-Hagenhausen Airfield",
   "latitude_deg": 49.387209,
   "longitude_deg": 11.422145,
   "iso_country": "DE"
 },
 {
   "id": 308221,
   "ident": "DE-0052",
   "name": "Bischofsberg Airfield",
   "latitude_deg": 50.43247038,
   "longitude_deg": 10.28706551,
   "iso_country": "DE"
 },
 {
   "id": 308233,
   "ident": "DE-0053",
   "name": "Cham-Janahof Airfield",
   "latitude_deg": 49.2120465,
   "longitude_deg": 12.65410423,
   "iso_country": "DE"
 },
 {
   "id": 308236,
   "ident": "DE-0054",
   "name": "Dobenreuth Airfield",
   "latitude_deg": 49.697,
   "longitude_deg": 11.1418,
   "iso_country": "DE"
 },
 {
   "id": 308245,
   "ident": "DE-0055",
   "name": "Tirschenreuth  Airfield",
   "latitude_deg": 49.8739,
   "longitude_deg": 12.3281,
   "iso_country": "DE"
 },
 {
   "id": 308252,
   "ident": "DE-0056",
   "name": "Paterzell Airfield",
   "latitude_deg": 47.84692036,
   "longitude_deg": 11.06108665,
   "iso_country": "DE"
 },
 {
   "id": 308272,
   "ident": "DE-0057",
   "name": "Am Kreuzberg Glider Airfield",
   "latitude_deg": 50.3088,
   "longitude_deg": 10.3734,
   "iso_country": "DE"
 },
 {
   "id": 308282,
   "ident": "DE-0058",
   "name": "Kronach Airfield",
   "latitude_deg": 50.243644,
   "longitude_deg": 11.3589,
   "iso_country": "DE"
 },
 {
   "id": 308289,
   "ident": "DE-0059",
   "name": "Kaufbeuren Air Base",
   "latitude_deg": 47.8617,
   "longitude_deg": 10.6143,
   "iso_country": "DE"
 },
 {
   "id": 308315,
   "ident": "DE-0060",
   "name": "Segelflugplatz Karlstadt-Saupurzel",
   "latitude_deg": 49.971234,
   "longitude_deg": 9.790516,
   "iso_country": "DE"
 },
 {
   "id": 308330,
   "ident": "DE-0061",
   "name": "Altötting Airfield",
   "latitude_deg": 48.2162,
   "longitude_deg": 12.6484,
   "iso_country": "DE"
 },
 {
   "id": 308407,
   "ident": "DE-0062",
   "name": "Antersberg Airfield",
   "latitude_deg": 47.9629,
   "longitude_deg": 11.9955,
   "iso_country": "DE"
 },
 {
   "id": 308487,
   "ident": "DE-0063",
   "name": "Rammertshof Amberg Airfield",
   "latitude_deg": 49.4394,
   "longitude_deg": 11.8107,
   "iso_country": "DE"
 },
 {
   "id": 308578,
   "ident": "DE-0064",
   "name": "Oberleichtersbach Airfield",
   "latitude_deg": 50.271942,
   "longitude_deg": 9.823622,
   "iso_country": "DE"
 },
 {
   "id": 308649,
   "ident": "DE-0065",
   "name": "Tröstau Glider Field",
   "latitude_deg": 50.018763,
   "longitude_deg": 11.933259,
   "iso_country": "DE"
 },
 {
   "id": 308750,
   "ident": "DE-0066",
   "name": "Königsdorf Gliding Center",
   "latitude_deg": 47.82868,
   "longitude_deg": 11.465,
   "iso_country": "DE"
 },
 {
   "id": 308807,
   "ident": "DE-0067",
   "name": "Dürabuch Glider Airfield",
   "latitude_deg": 48.26225,
   "longitude_deg": 11.2094,
   "iso_country": "DE"
 },
 {
   "id": 308808,
   "ident": "DE-0068",
   "name": "Erbendorf Airfield",
   "latitude_deg": 49.8438,
   "longitude_deg": 12.06714,
   "iso_country": "DE"
 },
 {
   "id": 308862,
   "ident": "DE-0069",
   "name": "Kleinhartpenning Ultralight Site",
   "latitude_deg": 47.8519,
   "longitude_deg": 11.6667,
   "iso_country": "DE"
 },
 {
   "id": 308863,
   "ident": "DE-0070",
   "name": "Marpingen Glider Airfield",
   "latitude_deg": 49.453,
   "longitude_deg": 7.039,
   "iso_country": "DE"
 },
 {
   "id": 308980,
   "ident": "DE-0071",
   "name": "Bad Königshofen Airfield",
   "latitude_deg": 50.2876,
   "longitude_deg": 10.4225,
   "iso_country": "DE"
 },
 {
   "id": 308982,
   "ident": "DE-0072",
   "name": "Bad Wörishofen Glider Airfield",
   "latitude_deg": 48.02678,
   "longitude_deg": 10.60135,
   "iso_country": "DE"
 },
 {
   "id": 308983,
   "ident": "DE-0073",
   "name": "Benediktbeuern Airfield",
   "latitude_deg": 47.71564,
   "longitude_deg": 11.3914,
   "iso_country": "DE"
 },
 {
   "id": 309024,
   "ident": "DE-0074",
   "name": "Brannenburg Airfield",
   "latitude_deg": 47.74075,
   "longitude_deg": 12.11548,
   "iso_country": "DE"
 },
 {
   "id": 309025,
   "ident": "DE-0075",
   "name": "Ohlstadt Airfield",
   "latitude_deg": 47.65869,
   "longitude_deg": 11.23507,
   "iso_country": "DE"
 },
 {
   "id": 309026,
   "ident": "DE-0076",
   "name": "Eschenlohe Airfield",
   "latitude_deg": 47.6235,
   "longitude_deg": 11.18388,
   "iso_country": "DE"
 },
 {
   "id": 309385,
   "ident": "DE-0077",
   "name": "Büchig Airfield",
   "latitude_deg": 50.4483,
   "longitude_deg": 10.2526,
   "iso_country": "DE"
 },
 {
   "id": 309403,
   "ident": "DE-0078",
   "name": "Fichtelbrunn Airfield",
   "latitude_deg": 49.49818,
   "longitude_deg": 11.6595,
   "iso_country": "DE"
 },
 {
   "id": 309406,
   "ident": "DE-0079",
   "name": "Friesner Warte Airfield",
   "latitude_deg": 49.8364,
   "longitude_deg": 11.04644,
   "iso_country": "DE"
 },
 {
   "id": 309513,
   "ident": "DE-0080",
   "name": "Fürth-Seckendorf Airfield",
   "latitude_deg": 49.48152,
   "longitude_deg": 10.8588,
   "iso_country": "DE"
 },
 {
   "id": 309514,
   "ident": "DE-0081",
   "name": "Füssen Glider Airfield",
   "latitude_deg": 47.58306,
   "longitude_deg": 10.6909,
   "iso_country": "DE"
 },
 {
   "id": 309619,
   "ident": "DE-0082",
   "name": "Gammelsdorf Glider Field",
   "latitude_deg": 48.5679,
   "longitude_deg": 11.9325,
   "iso_country": "DE"
 },
 {
   "id": 309620,
   "ident": "DE-0083",
   "name": "Geitau Airfield",
   "latitude_deg": 47.6795,
   "longitude_deg": 11.9622,
   "iso_country": "DE"
 },
 {
   "id": 309632,
   "ident": "DE-0084",
   "name": "Geratshof Airfield",
   "latitude_deg": 47.9925,
   "longitude_deg": 10.8442,
   "iso_country": "DE"
 },
 {
   "id": 309638,
   "ident": "DE-0085",
   "name": "Greding Airfield",
   "latitude_deg": 49.0622,
   "longitude_deg": 11.2924,
   "iso_country": "DE"
 },
 {
   "id": 309639,
   "ident": "DE-0086",
   "name": "Greiling Airfield",
   "latitude_deg": 47.7654,
   "longitude_deg": 11.59546,
   "iso_country": "DE"
 },
 {
   "id": 309873,
   "ident": "DE-0087",
   "name": "Hallertau Airfield",
   "latitude_deg": 48.64972,
   "longitude_deg": 11.59687,
   "iso_country": "DE"
 },
 {
   "id": 309874,
   "ident": "DE-0088",
   "name": "Hersbruck Airfield",
   "latitude_deg": 49.50753,
   "longitude_deg": 11.4438,
   "iso_country": "DE"
 },
 {
   "id": 309875,
   "ident": "DE-0089",
   "name": "Hienheim Airfield",
   "latitude_deg": 48.87811,
   "longitude_deg": 11.76034,
   "iso_country": "DE"
 },
 {
   "id": 309906,
   "ident": "DE-0090",
   "name": "Oberhinkofen Airfield",
   "latitude_deg": 48.9517,
   "longitude_deg": 12.1467,
   "iso_country": "DE"
 },
 {
   "id": 309907,
   "ident": "DE-0091",
   "name": "Oeventrop Airfield",
   "latitude_deg": 51.3961,
   "longitude_deg": 8.1445,
   "iso_country": "DE"
 },
 {
   "id": 309908,
   "ident": "DE-0092",
   "name": "Ottenberg Airfield",
   "latitude_deg": 49.3287,
   "longitude_deg": 11.4797,
   "iso_country": "DE"
 },
 {
   "id": 309909,
   "ident": "DE-0093",
   "name": "Unterwössen Airfield",
   "latitude_deg": 47.72974,
   "longitude_deg": 12.4382,
   "iso_country": "DE"
 },
 {
   "id": 309957,
   "ident": "DE-0094",
   "name": "Agathazell Airfield",
   "latitude_deg": 47.553,
   "longitude_deg": 10.2731,
   "iso_country": "DE"
 },
 {
   "id": 309980,
   "ident": "DE-0095",
   "name": "Alte Ems Airfield",
   "latitude_deg": 53.030765,
   "longitude_deg": 7.305385,
   "iso_country": "DE"
 },
 {
   "id": 309996,
   "ident": "DE-0096",
   "name": "Am Salzgittersee Airfield",
   "latitude_deg": 52.1702,
   "longitude_deg": 10.31573,
   "iso_country": "DE"
 },
 {
   "id": 309997,
   "ident": "DE-0097",
   "name": "Staufenberg Glider Field",
   "latitude_deg": 51.362,
   "longitude_deg": 9.6288,
   "iso_country": "DE"
 },
 {
   "id": 309999,
   "ident": "DE-0098",
   "name": "Große Höhe Airfield",
   "latitude_deg": 52.9861,
   "longitude_deg": 8.5722,
   "iso_country": "DE"
 },
 {
   "id": 310000,
   "ident": "DE-0099",
   "name": "Große Wiese Airfield",
   "latitude_deg": 52.13704,
   "longitude_deg": 10.5695,
   "iso_country": "DE"
 },
 {
   "id": 310074,
   "ident": "DE-0100",
   "name": "Großes Moor Airfield",
   "latitude_deg": 52.5359,
   "longitude_deg": 10.02,
   "iso_country": "DE"
 },
 {
   "id": 310075,
   "ident": "DE-0101",
   "name": "Hellenhagen Airfield",
   "latitude_deg": 52.02624,
   "longitude_deg": 9.5628,
   "iso_country": "DE"
 },
 {
   "id": 310076,
   "ident": "DE-0102",
   "name": "Hellingst Airfield",
   "latitude_deg": 53.3751,
   "longitude_deg": 8.8498,
   "iso_country": "DE"
 },
 {
   "id": 310077,
   "ident": "DE-0103",
   "name": "Rote Wiese Glider Field",
   "latitude_deg": 52.2336,
   "longitude_deg": 10.9809,
   "iso_country": "DE"
 },
 {
   "id": 310079,
   "ident": "DE-0104",
   "name": "Höpen Airfield",
   "latitude_deg": 53.1473,
   "longitude_deg": 9.796,
   "iso_country": "DE"
 },
 {
   "id": 310080,
   "ident": "DE-0105",
   "name": "Holtorfsloh Airfield",
   "latitude_deg": 53.3222,
   "longitude_deg": 10.0743,
   "iso_country": "DE"
 },
 {
   "id": 310081,
   "ident": "DE-0106",
   "name": "Hoya Airfield",
   "latitude_deg": 52.8119,
   "longitude_deg": 9.1638,
   "iso_country": "DE"
 },
 {
   "id": 310655,
   "ident": "DE-0107",
   "name": "Gronau Airfield",
   "latitude_deg": 52.0578,
   "longitude_deg": 9.8104,
   "iso_country": "DE"
 },
 {
   "id": 310656,
   "ident": "DE-0108",
   "name": "Aue bei Hattorf Airfield",
   "latitude_deg": 51.6334,
   "longitude_deg": 10.2544,
   "iso_country": "DE"
 },
 {
   "id": 310657,
   "ident": "DE-0109",
   "name": "Brockzetel Glider Field",
   "latitude_deg": 53.4814,
   "longitude_deg": 7.6511,
   "iso_country": "DE"
 },
 {
   "id": 310658,
   "ident": "DE-0110",
   "name": "Bad Zwischenahn - Rostrup Airfield",
   "latitude_deg": 53.2102,
   "longitude_deg": 7.9887,
   "iso_country": "DE"
 },
 {
   "id": 311008,
   "ident": "DE-0111",
   "name": "Berliner Heide Airfield",
   "latitude_deg": 52.6697,
   "longitude_deg": 10.3705,
   "iso_country": "DE"
 },
 {
   "id": 311009,
   "ident": "DE-0112",
   "name": "Bisperode Airfield",
   "latitude_deg": 52.0788,
   "longitude_deg": 9.476,
   "iso_country": "DE"
 },
 {
   "id": 311010,
   "ident": "DE-0113",
   "name": "Blexen Airfield",
   "latitude_deg": 53.5383,
   "longitude_deg": 8.5388,
   "iso_country": "DE"
 },
 {
   "id": 311045,
   "ident": "DE-0114",
   "name": "Segelfluggelände Farrenberg",
   "latitude_deg": 48.38570626,
   "longitude_deg": 9.076333,
   "iso_country": "DE"
 },
 {
   "id": 311066,
   "ident": "DE-0115",
   "name": "Oppershausen Airfield",
   "latitude_deg": 52.5955,
   "longitude_deg": 10.2235,
   "iso_country": "DE"
 },
 {
   "id": 311067,
   "ident": "DE-0116",
   "name": "Peißenberg Airfield",
   "latitude_deg": 47.8337,
   "longitude_deg": 11.06685,
   "iso_country": "DE"
 },
 {
   "id": 311068,
   "ident": "DE-0117",
   "name": "Quakenbrück Airfield",
   "latitude_deg": 52.6634,
   "longitude_deg": 7.9249,
   "iso_country": "DE"
 },
 {
   "id": 311069,
   "ident": "DE-0118",
   "name": "Scheuen Airfield",
   "latitude_deg": 52.6693,
   "longitude_deg": 10.088,
   "iso_country": "DE"
 },
 {
   "id": 311070,
   "ident": "DE-0119",
   "name": "Schnuckenheide-Repke Airfield",
   "latitude_deg": 52.7163,
   "longitude_deg": 10.5336,
   "iso_country": "DE"
 },
 {
   "id": 311181,
   "ident": "DE-0120",
   "name": "Steinberg at Wessein Airfield",
   "latitude_deg": 52.0838,
   "longitude_deg": 10.018,
   "iso_country": "DE"
 },
 {
   "id": 311547,
   "ident": "DE-0121",
   "name": "Bohlenbergerfeld Airfield",
   "latitude_deg": 53.418,
   "longitude_deg": 7.9039,
   "iso_country": "DE"
 },
 {
   "id": 311548,
   "ident": "DE-0122",
   "name": "Bollrich Airfield",
   "latitude_deg": 51.9058,
   "longitude_deg": 10.4619,
   "iso_country": "DE"
 },
 {
   "id": 311550,
   "ident": "DE-0123",
   "name": "Bückeburg-Weinberg Airfield",
   "latitude_deg": 52.2511,
   "longitude_deg": 9.0146,
   "iso_country": "DE"
 },
 {
   "id": 311666,
   "ident": "DE-0124",
   "name": "Osterholz-Scharmbeck Airfield",
   "latitude_deg": 53.2135,
   "longitude_deg": 8.8102,
   "iso_country": "DE"
 },
 {
   "id": 311668,
   "ident": "DE-0125",
   "name": "Peine-Glindbruchkippe Airfield",
   "latitude_deg": 52.3238,
   "longitude_deg": 10.1815,
   "iso_country": "DE"
 },
 {
   "id": 311669,
   "ident": "DE-0126",
   "name": "Stüde Bernsteinsee Airfield",
   "latitude_deg": 52.5638,
   "longitude_deg": 10.6853,
   "iso_country": "DE"
 },
 {
   "id": 311720,
   "ident": "DE-0127",
   "name": "Sultmer Berg Airfield",
   "latitude_deg": 51.73,
   "longitude_deg": 9.9925,
   "iso_country": "DE"
 },
 {
   "id": 311721,
   "ident": "DE-0128",
   "name": "Tarmstedt Airfield",
   "latitude_deg": 53.2514,
   "longitude_deg": 9.1084,
   "iso_country": "DE"
 },
 {
   "id": 311723,
   "ident": "DE-0129",
   "name": "Walsrode Airfield",
   "latitude_deg": 52.8882,
   "longitude_deg": 9.6,
   "iso_country": "DE"
 },
 {
   "id": 311777,
   "ident": "DE-0130",
   "name": "Ummern Airfield",
   "latitude_deg": 52.6204,
   "longitude_deg": 10.4092,
   "iso_country": "DE"
 },
 {
   "id": 311778,
   "ident": "DE-0131",
   "name": "Uslar Airfield",
   "latitude_deg": 51.6619,
   "longitude_deg": 9.6044,
   "iso_country": "DE"
 },
 {
   "id": 311779,
   "ident": "DE-0132",
   "name": "Wenzendorf Airfield",
   "latitude_deg": 53.3374,
   "longitude_deg": 9.7797,
   "iso_country": "DE"
 },
 {
   "id": 312142,
   "ident": "DE-0133",
   "name": "Weper Airfield",
   "latitude_deg": 51.7124,
   "longitude_deg": 9.8026,
   "iso_country": "DE"
 },
 {
   "id": 312143,
   "ident": "DE-0134",
   "name": "FSV Illtal Airfield",
   "latitude_deg": 49.41,
   "longitude_deg": 7.0547,
   "iso_country": "DE"
 },
 {
   "id": 312208,
   "ident": "DE-0135",
   "name": "Amöneburg Airfield",
   "latitude_deg": 50.78985,
   "longitude_deg": 8.90635,
   "iso_country": "DE"
 },
 {
   "id": 312209,
   "ident": "DE-0136",
   "name": "Aßlarer Hütte Airfield",
   "latitude_deg": 50.5999,
   "longitude_deg": 8.4439,
   "iso_country": "DE"
 },
 {
   "id": 312210,
   "ident": "DE-0137",
   "name": "Bensheimer Stadtwiesen Airfield",
   "latitude_deg": 49.6926,
   "longitude_deg": 8.5819,
   "iso_country": "DE"
 },
 {
   "id": 312569,
   "ident": "DE-0138",
   "name": "Dehausen Airfield",
   "latitude_deg": 51.4635,
   "longitude_deg": 9.04925,
   "iso_country": "DE"
 },
 {
   "id": 312570,
   "ident": "DE-0139",
   "name": "Braunfels Airfield",
   "latitude_deg": 50.5255,
   "longitude_deg": 8.393,
   "iso_country": "DE"
 },
 {
   "id": 312571,
   "ident": "DE-0140",
   "name": "\"Der Dingel\" Airfield",
   "latitude_deg": 51.536,
   "longitude_deg": 9.3805,
   "iso_country": "DE"
 },
 {
   "id": 312688,
   "ident": "DE-0141",
   "name": "Dornberg-Sontra Airfield",
   "latitude_deg": 51.0873,
   "longitude_deg": 9.9155,
   "iso_country": "DE"
 },
 {
   "id": 312689,
   "ident": "DE-0142",
   "name": "Eibinger Forstwiese Airfield",
   "latitude_deg": 50.0186,
   "longitude_deg": 7.89324,
   "iso_country": "DE"
 },
 {
   "id": 312694,
   "ident": "DE-0143",
   "name": "Garbenheimer Wiesen Glider Field",
   "latitude_deg": 50.574,
   "longitude_deg": 8.529,
   "iso_country": "DE"
 },
 {
   "id": 312947,
   "ident": "DE-0144",
   "name": "Gedern Glider Field",
   "latitude_deg": 50.4326,
   "longitude_deg": 9.195,
   "iso_country": "DE"
 },
 {
   "id": 312948,
   "ident": "DE-0145",
   "name": "Gießen Airfield",
   "latitude_deg": 50.6042,
   "longitude_deg": 8.7286,
   "iso_country": "DE"
 },